,id_site,id_site_osm,name_site,type_site,cat_site,cnt_bldgs,cz_cec_doe,util,SQFT_ROOF,LON,LAT,REGION,geometry,pv_cost_dollars_95_48,ba_cost_dollars_95_48,clp_48,floor_sqft,capacity_48,cost_48
0,1100170112607,36978185,Envision Academy for Arts & Technology,High,SCHOOL,1.0,3_3C,Pacific Gas & Electric Company,15394.0855381,-122.268380000147,37.804680000433,Bay Area,POINT (-199346.05743158385 -21318.258575216867),262107.52681157453,357836.5581977155,4.0682574243187695,16959.20673870047,1724.8604681318775,619944.08500929
1,1100170123968,27232624,Community School for Creative Education,Elementary,SCHOOL,1.0,3_3C,Pacific Gas & Electric Company,20434.0980033,-122.238629999648,37.784639999882,Bay Area,POINT (-196783.57155970414 -23607.585237703286),405298.24910531036,604237.393197378,3.763293347538296,24845.5814703901,2337.5302865809954,1009535.6423026884
2,1100170124172,685050169,Yu Ming Charter,Elementary,SCHOOL,3.0,3_3C,Pacific Gas & Electric Company,10470.7580212,-122.283619999999,37.8473699996556,Bay Area,POINT (-200571.37827920605 -16541.767099541612),111879.99616439901,160562.53671988932,5.154597385796604,10482.925325010357,1350.8814868949853,272442.53288428835
3,1100170125567,27293554,Urban Montessori Charter,Elementary,SCHOOL,17.0,3_3C,Pacific Gas & Electric Company,67409.5045009,-122.187978430958,37.7867614171248,Bay Area,POINT (-192324.52233995654 -23475.806643507443),1237829.0744044976,1723405.4063448806,3.261888180654222,80374.24044820353,6554.294623676391,2961234.480749378
4,1100170129403,407832146,Epic Charter,Middle,SCHOOL,3.0,3_3C,Pacific Gas & Electric Company,32331.0507542,-122.229615999746,37.7771129998303,Bay Area,POINT (-196010.68375786635 -24462.784139202442),520138.5713419744,748489.2455227338,4.723206511628112,36987.74863314325,4367.51937986315,1268627.8168647082
5,1100170130401,X,Alameda County Juvenile Hall/Court,Juvenile Court,SCHOOL,,,,17535.375594541823,-122.118220000113,37.7159500001502,,POINT (-186366.86226969227 -31485.00791474292),280857.83710698015,399623.2326388656,3.6128906164901005,19520.236581909747,1763.111989461213,680481.0697458457
6,1100170130419,X,Alameda County Community,County Community,SCHOOL,,,,44303.25568958027,-122.097939999751,37.6583499997809,,POINT (-184723.71732887434 -37926.296683136374),795471.2520576537,1191125.459906486,3.2572702074156106,50361.450754199635,4101.021328597073,1986596.7119641397
7,1100170131581,27232740,Oakland Unity Middle,Middle,SCHOOL,7.0,3_3C,Pacific Gas & Electric Company,24663.394522,-122.190759034539,37.759080020742,Bay Area,POINT (-192640.10565329238 -26546.581439819653),480579.5379527437,725844.5036366419,3.677018920947312,32559.547746984954,2993.0518280787774,1206424.0415893856
8,1100170136101,X,Connecting Waters Charter - East Bay,K-12,SCHOOL,,,,23644.69995815972,-122.025109999639,37.6037800000363,,POINT (-178438.59575228865 -44130.725315084215),318481.3471476619,438976.88740630046,4.5499571392537765,24181.421644096165,2750.6108011715287,757458.2345539624
9,1100170136226,X,Opportunity Academy,County Community,SCHOOL,,,,14113.250435395576,-122.0979463084,37.6583506287462,,POINT (-184724.27142752832 -37926.21448326111),223792.69609442283,303254.56135453936,3.888767630429191,14787.315319520309,1437.6108288875066,527047.2574489622
10,1100170137448,X,Aurum Preparatory Academy,Middle,SCHOOL,,,,23625.58116071496,-122.19603999956,37.7586300001029,,POINT (-193105.76077024147 -26585.84705281863),419164.0541925334,625002.8986939329,3.5889477071720615,27550.69780352537,2471.950342823818,1044166.9528864664
11,1100170138867,X,Hayward Collegiate Charter,Elementary,SCHOOL,,,,27489.94636276649,-122.082061000156,37.6480709998258,,POINT (-183350.23496210782 -39099.53043239005),500705.1628162628,703520.4842102852,3.4745860594143836,32948.08698737017,2862.024093267221,1204225.6470265482
12,1100176001788,27946497,Cox Academy,Elementary,SCHOOL,11.0,3_3C,Pacific Gas & Electric Company,93327.2905381,-122.161399999954,37.746300000392,Bay Area,POINT (-190090.15597794033 -28026.202584752813),1628840.8342964298,2227282.1261877804,3.621265756582277,123206.74256541533,11154.108945804664,3856122.9604842104
13,1100176002000,27209442,Lazear Charter Academy,Elementary,SCHOOL,4.0,3_3C,Pacific Gas & Electric Company,40194.7823245,-122.231779999515,37.77556000041,Bay Area,POINT (-196205.03822478015 -24630.899678974412),698468.8736225732,1058679.5934013152,3.462557676947452,46195.305289659795,3998.847724241069,1757148.4670238884
14,1316090131755,302176776,California School for the Blind,State Special,SCHOOL,1.0,3_3C,Pacific Gas & Electric Company,8558.945274539998,-121.965489999642,37.5618000004498,Bay Area,POINT (-173280.25911233653 -48907.049882227555),124156.43244489656,178045.89822801613,3.3536918668114173,8583.569235541416,719.6661583361986,302202.3306729127
15,1316170131763,302177665,California School for the Deaf-Fremont,State Special,SCHOOL,1.0,3_3C,Pacific Gas & Electric Company,6450.13016568,-121.963350000079,37.5597599998774,Bay Area,POINT (-173096.22276425108 -49137.68891866598),104036.95344478545,151194.89364275793,3.5828841372416496,6471.836575056715,579.6960150897759,255231.8470875434
16,1611190106401,X,Alameda Science and Technology Institute,Alternative Schools of Choice,SCHOOL,,,,61426.03851755677,-122.280510000188,37.7813999995511,,POINT (-200474.54742037054 -23879.88273223024),1062336.5366126988,1510278.5220820152,3.4260929296720826,71386.62667623567,6114.430423214788,2572615.0586947137
17,1611190111765,91234879,Ruby Bridges Elementary,Elementary,SCHOOL,14.0,3_3C,Pacific Gas & Electric Company,60447.4022031,-122.285119999647,37.7825499997451,Bay Area,POINT (-200876.8172719836 -23742.316297914833),1011101.0154993698,1437546.6901759687,3.294427452048189,61579.557071815136,5071.734582558899,2448647.7056753384
18,1611190119222,301425030,Nea Community Learning Center,K-12,SCHOOL,18.0,3_3C,Pacific Gas & Electric Company,76277.83788459998,-122.287290000186,37.7792099997395,Bay Area,POINT (-201076.57615184438 -24108.902441392653),1173935.7865069807,1649835.9475758811,3.856589419502206,80857.7557338965,7795.879131200976,2823771.734082862
19,1611190122085,301425029,The Academy of Alameda,Middle,SCHOOL,4.0,3_3C,Pacific Gas & Electric Company,49985.8639346,-122.285399999458,37.7770399999495,Bay Area,POINT (-200916.2007518504 -24354.072159060277),778866.1621504485,1105674.5243852523,3.803726689182207,53992.69578491195,5134.336449449131,1884540.6865357007
20,1611190130229,210717799,Alameda High,High,SCHOOL,6.0,3_3C,Pacific Gas & Electric Company,196711.146298,-122.246134000505,37.7647069999075,Bay Area,POINT (-197495.85855567933 -25807.236476364546),2929368.2093053507,3761833.4602268245,3.7282252282948924,240901.05148352258,22453.33444159089,6691201.669532175
21,1611190130609,301425030,Alameda Community Learning Center,K-12,SCHOOL,18.0,3_3C,Pacific Gas & Electric Company,76277.83788459998,-122.287290000186,37.7792099997395,Bay Area,POINT (-201076.57615184438 -24108.902441392653),1173935.7865069807,1649835.9475758811,3.856589419502206,80857.7557338965,7795.879131200976,2823771.734082862
22,1611190130625,27293436,Alternatives in Action,High,SCHOOL,6.0,3_3C,Pacific Gas & Electric Company,35976.2621285,-122.195509999456,37.7643399996383,Bay Area,POINT (-193044.4453429003 -25952.336860592943),692011.119630608,1003671.5765025276,3.4656616628883894,44803.82806410079,3881.8727318099254,1695682.6961331356
23,1611190131805,301425029,The Academy of Alameda Elementary,Elementary,SCHOOL,4.0,3_3C,Pacific Gas & Electric Company,49985.8639346,-122.285350000376,37.7765600003679,Bay Area,POINT (-200913.09026519017 -24407.522525905166),778866.1621504485,1105674.5243852523,3.803189046235488,53992.69578491195,5133.610729647554,1884540.6865357007
24,1611190132142,404589154,Encinal Junior/Senior High,K-12,SCHOOL,26.0,3_3C,Pacific Gas & Electric Company,142602.685778,-122.289700000135,37.7717100002766,Bay Area,POINT (-201308.62380970098 -24937.29162373487),2114660.7394611323,2842904.633630366,3.7369494021445213,169470.70406219785,15832.586155656036,4957565.373091498
25,1611190134304,230604912,Island High (Continuation),Continuation,SCHOOL,4.0,3_3C,Pacific Gas & Electric Company,39078.9746429,-122.281510000231,37.776130000052,Bay Area,POINT (-200576.57285155702 -24463.44455130305),657765.2879646113,975160.8775105356,3.4111843370797237,40917.10054250309,3489.39431223257,1632926.1654751468
26,1611190139220,297780734,Maya Lin,Elementary,SCHOOL,1.0,3_3C,Pacific Gas & Electric Company,39379.5901421,-122.271810999983,37.7724850002396,Bay Area,POINT (-199733.40055548865 -24889.0145488875),657839.9923126257,996897.75206662,3.6707042161974948,42848.99218227777,3932.1494065825123,1654737.7443792457
27,1611196090013,339654220,Edison Elementary,Elementary,SCHOOL,10.0,3_3C,Pacific Gas & Electric Company,34887.9425511,-122.234759999968,37.7645500002767,Bay Area,POINT (-196495.93658605026 -25848.328464117367),617635.4280499998,911299.5765108438,3.3441225338206797,36852.26404641528,3080.962165498175,1528935.0045608436
28,1611196090021,40223286,Frank Otis Elementary,Elementary,SCHOOL,5.0,3_3C,Pacific Gas & Electric Company,44143.0251984,-122.238299999845,37.7538099996301,Bay Area,POINT (-196835.46192749136 -27034.577220759355),759746.2428873994,1104806.122488634,3.3881860481723165,45777.21608912195,3877.543121933307,1864552.3653760334
29,1611196090039,230605410,Franklin Elementary,Elementary,SCHOOL,4.0,3_3C,Pacific Gas & Electric Company,18531.1451086,-122.260840000504,37.7688500000503,Bay Area,POINT (-198778.2523208264 -25316.05676274048),299843.1340196978,404098.40167767764,3.1499854218537178,18750.441667695253,1476.590447663964,703941.5356973754
30,1611196090047,297782025,Love Elementary,Elementary,SCHOOL,4.0,3_3C,Pacific Gas & Electric Company,38828.8701418,-122.251199999995,37.7691800004262,Bay Area,POINT (-197929.60189021652 -25299.559467211366),683628.7936254953,1005654.5775595607,3.395620438166819,41475.65011599273,3520.889130503023,1689283.371185056
31,1611196090054,199894417,Lincoln Middle,Middle,SCHOOL,9.0,3_3C,Pacific Gas & Electric Company,64856.3791518,-122.231459999532,37.7528299996353,Bay Area,POINT (-196236.36563500733 -27157.67552429065),1094376.689935649,1543464.4888517393,3.6118913962223393,78129.51083594364,7054.8826994851215,2637841.1787873884
32,1611196090112,230612046,Will C. Wood Middle,Middle,SCHOOL,7.0,3_3C,Pacific Gas & Electric Company,51331.4649869,-122.262429999542,37.7613099997805,Bay Area,POINT (-198938.0830434887 -26150.67684004875),833741.7841746297,1215714.278364849,3.6200073506866284,60135.87921499287,5442.308119956936,2049456.0625394788
33,1611196090120,297782971,William G. Paden Elementary,Elementary,SCHOOL,5.0,3_3C,Pacific Gas & Electric Company,35465.3245193,-122.283930000528,37.7712099996418,Bay Area,POINT (-200802.54958992533 -25005.100251777098),603018.7637522699,889452.3456862838,3.4272087821190658,36701.07665949101,3144.556306015816,1492471.1094385537
34,1611196100374,40223530,Amelia Earhart Elementary,Elementary,SCHOOL,12.0,3_3C,Pacific Gas & Electric Company,56575.9475398,-122.238200000106,37.7449300001038,Bay Area,POINT (-196849.96810071566 -28021.667240112554),1014663.705666605,1446314.661242223,3.3149542927442215,62349.20254684863,5167.11891579637,2460978.3669088283
35,1611196110779,X,Bay Farm,Elementary,SCHOOL,,,,87214.43842658606,-122.251379999599,37.7441299999222,,POINT (-198011.55340659863 -28083.116969986353),1552928.6294143375,2136516.0754273687,3.616261397019071,116163.10822592121,10501.904100878684,3689444.704841706
36,1611270130294,24638973,MacGregor High (Continuation),Continuation,SCHOOL,4.0,3_3B,Pacific Gas & Electric Company,87785.17217269998,-122.292369999775,37.8962499998904,Bay Area,POINT (-201208.7038420255 -11090.97503154492),1434689.1274370437,1986491.1889574064,3.6171413801929835,107644.45288561391,9734.130122019702,3421180.31639445
37,1611270130450,24638973,Albany High,High,SCHOOL,4.0,3_3B,Pacific Gas & Electric Company,87785.17217269998,-122.291829999808,37.8963000004258,Bay Area,POINT (-201161.16085157418 -11086.56465328997),1434689.1274370437,1986491.1889574064,3.6171413801929835,107644.45288561391,9734.130122019702,3421180.31639445
38,1611276090146,45303399,Cornell Elementary,Elementary,SCHOOL,5.0,3_3C,Pacific Gas & Electric Company,38854.7580884,-122.295340000077,37.8896699997051,Bay Area,POINT (-201487.1589022261 -11815.92725086119),675674.8767079632,1003611.3137373691,3.382437645198723,41198.01046665004,3483.742537742203,1679286.1904453323
39,1611276090161,24638974,Albany Middle,Middle,SCHOOL,7.0,3_3B,Pacific Gas & Electric Company,63385.7172694,-122.295350000306,37.8980200000972,Bay Area,POINT (-201465.56591755708 -10887.936483136378),1070437.086605995,1518926.2409257856,3.5365120823761145,76352.81605959359,6750.566412954844,2589363.3275317806
40,1611276095376,36811248,Marin Elementary,Elementary,SCHOOL,3.0,3_3C,Pacific Gas & Electric Company,28093.4998969,-122.288040000242,37.8882099999382,Bay Area,POINT (-200850.12450339404 -11993.679346857127),467881.46830842656,690180.5829846405,3.3933014939469492,28666.84247197293,2431.8809846721897,1158062.0512930672
41,1611276116222,45303398,Ocean View Elementary,Elementary,SCHOOL,3.0,3_3C,Pacific Gas & Electric Company,59927.7687798,-122.301360000334,37.886880000219,Bay Area,POINT (-202023.2510039511 -12113.174686291255),1024713.2137081813,1462863.7466800062,3.3541954758208226,63407.556481945765,5317.033477114894,2487576.9603881873
42,1611430131177,27762630,Berkeley High,High,SCHOOL,12.0,3_3C,Pacific Gas & Electric Company,264238.357161,-122.271549999932,37.8684500000909,Bay Area,POINT (-199454.87075329584 -14224.525053989608),4104465.757188888,5140961.656312529,3.7587360619798327,351985.30786981934,33075.496749434096,9245427.413501417
43,1611430134924,69020456,Berkeley Technology Academy,Continuation,SCHOOL,5.0,3_3C,Pacific Gas & Electric Company,24950.9298563,-122.271169999765,37.8594100001666,Bay Area,POINT (-199445.56821301527 -15229.982931384351),514871.0792000874,764106.3713322653,3.3893342291329005,31315.29559173445,2653.450081112005,1278977.4505323528
44,1611436056857,54582535,Martin Luther King Middle,Middle,SCHOOL,8.0,3_3C,Pacific Gas & Electric Company,112700.633027,-122.277200000134,37.881669999622,Bay Area,POINT (-199915.79637631972 -12743.419572087005),1910172.7937808658,2594082.913475132,3.724013214719324,151197.40581702767,14076.528432347284,4504255.707255998
45,1611436056865,69020906,Willard Middle,Middle,SCHOOL,6.0,3_3C,Pacific Gas & Electric Company,92995.7718296,-122.258409999874,37.859920000175,Bay Area,POINT (-198323.41041405866 -15200.0832478581),1521143.3238309436,2084469.7051104333,4.021559063526437,122008.02799694178,12266.562270352213,3605613.028941377
46,1611436090187,28406884,Rosa Parks Environmental Science,Elementary,SCHOOL,12.0,3_3C,Pacific Gas & Electric Company,47898.9575947,-122.294700000318,37.8654300001904,Bay Area,POINT (-201496.18076142264 -14511.178091671318),913290.981942437,1301765.4784991457,4.086037496435778,56333.549287833746,5754.524867435042,2215056.460441583
47,1611436090195,30910552,Cragmont Elementary,Elementary,SCHOOL,1.0,3_3C,Pacific Gas & Electric Company,25162.4150489,-122.267810000557,37.8940400000802,Bay Area,POINT (-199058.35817111176 -11388.44936658768),533009.8061733147,790778.6246064979,3.3465573956179338,31071.019133216443,2599.523721741295,1323788.4307798126
48,1611436090211,215827733,Emerson Elementary,Elementary,SCHOOL,1.0,3_3C,Pacific Gas & Electric Company,24889.3307802,-122.250399999493,37.8610499996054,Bay Area,POINT (-197616.85294089856 -15091.233673576731),537346.7790493878,792534.4023043902,3.5794926788619894,31781.195970254557,2844.0139575251087,1329881.181353778
49,1611436090252,30910549,Ruth Acty Elementary,Elementary,SCHOOL,1.0,3_3C,Pacific Gas & Electric Company,35708.6880963,-122.284919999505,37.8786199997127,Bay Area,POINT (-200601.86883142698 -13066.066011029761),705509.2296958996,1026925.876348668,3.367070819216862,44070.624828594366,3709.7228711253547,1732435.1060445677
50,1611436090278,233173242,Sylvia Mendez Elementary,Elementary,SCHOOL,4.0,3_3C,Pacific Gas & Electric Company,43648.1383723,-122.26264000025,37.8577299995771,Bay Area,POINT (-198700.77086957317 -15434.608277489897),889852.5753979145,1265696.8667887535,3.3690342704619827,53465.69033274448,4503.193575623101,2155549.442186668
51,1611436090286,69020512,Malcolm X Elementary,Elementary,SCHOOL,1.0,3_3C,Pacific Gas & Electric Company,37460.9375195,-122.273630000324,37.8525600001196,Bay Area,POINT (-199679.90817182374 -15986.075383233838),766777.103210922,1117161.609331624,3.362356518757453,48275.505990285776,4057.9865565687965,1883938.712542546
52,1611436090294,9387379,Longfellow Arts and Technology Middle,Middle,SCHOOL,4.0,3_3C,Pacific Gas & Electric Company,67587.3116953,-122.279069999769,37.8584900002691,Bay Area,POINT (-200141.94150950835 -15315.571466847789),1226045.7148104797,1719154.3875860414,3.74398056958148,87841.11176905906,8221.885391844804,2945200.102396521
53,1611436090302,69020737,Oxford Elementary at West Campus,Elementary,SCHOOL,7.0,3_3C,Pacific Gas & Electric Company,60470.600728,-122.288557991429,37.8693789931958,Bay Area,POINT (-200946.1327764989 -14085.351478796452),1006358.356364996,1432795.0430407787,4.050311651699518,61517.99641639864,6229.176441863715,2439153.3994057747
54,1611436090310,30910550,Thousand Oaks Elementary,Elementary,SCHOOL,1.0,3_3C,Pacific Gas & Electric Company,48121.1187394,-122.280630000154,37.8929199996147,Bay Area,POINT (-200186.90746730662 -11485.915369293187),956549.2735320927,1365641.8965105372,3.259548041574205,59373.75820027747,4838.29043156537,2322191.17004263
55,1611436090328,203290645,Washington Elementary,Elementary,SCHOOL,3.0,3_3C,Pacific Gas & Electric Company,26200.4374739,-122.273119999508,37.8666699998557,Bay Area,POINT (-199597.50264924354 -14419.03933459986),556271.5907396917,822834.1602410643,3.4295478856353814,32863.1951136853,2817.6475329340606,1379105.750980756
56,1611436097729,30909403,Berkeley Arts Magnet at Whittier,Elementary,SCHOOL,8.0,3_3C,Pacific Gas & Electric Company,36780.3136833,-122.270600000411,37.8768799996207,Bay Area,POINT (-199348.99356831095 -13289.658025042154),701402.5838934954,1032849.4324093385,3.6032883273931264,48000.606528794284,4324.000630324868,1734252.0163028338
57,1611436105316,22958127,John Muir Elementary,Elementary,SCHOOL,1.0,3_3C,Pacific Gas & Electric Company,22910.5494041,-122.244979999947,37.857440000368,Bay Area,POINT (-197150.28358178298 -15503.721436277498),469084.58861728705,688530.9227941105,3.5341411200523805,28426.224544748402,2511.5572262859396,1157615.5114113975
58,1611500130047,548485524,Roy A. Johnson High,Special Education,SCHOOL,16.0,3_3C,Pacific Gas & Electric Company,36498.9158365,-122.092889999943,37.7129999998283,Bay Area,POINT (-184144.82943434067 -31862.385651989374),626630.47120846,922873.215648401,3.693960309460802,42538.47751380323,3928.3861890219982,1549503.686856861
59,1611500132225,28673511,Castro Valley High,High,SCHOOL,10.0,3_3C,Pacific Gas & Electric Company,113653.660194,-122.076679999699,37.7043099997927,Bay Area,POINT (-182739.2966438551 -32859.56536765909),1802633.7369991965,2459564.80434172,3.701817911554495,143344.04797466463,13265.83910768351,4262198.541340916
60,1611500133876,548485524,Castro Valley Virtual Academy,K-12,SCHOOL,16.0,3_3C,Pacific Gas & Electric Company,36498.9158365,-122.092889999943,37.7129999998283,Bay Area,POINT (-184144.82943434067 -31862.385651989374),626630.47120846,922873.215648401,3.693960309460802,42538.47751380323,3928.3861890219982,1549503.686856861
61,1611500135533,548485524,Redwood Continuation High,Continuation,SCHOOL,16.0,3_3C,Pacific Gas & Electric Company,36498.9158365,-122.092060000253,37.7136299998295,Bay Area,POINT (-184070.23350317642 -31793.98053872492),632291.8464933104,947197.092760091,3.6947758089022793,42696.36568774313,3943.8374767779655,1579488.9392534015
62,1611506090351,79292896,Castro Valley Elementary,Elementary,SCHOOL,16.0,3_3C,Pacific Gas & Electric Company,42619.3672389,-122.08156000047,37.6980399997406,Bay Area,POINT (-183184.15256089892 -33546.98744510254),740369.1138265766,1080373.7960612753,3.2317315730951433,44507.8420643128,3595.9349612392944,1820742.909887852
63,1611506090369,401098506,Chabot Elementary,Elementary,SCHOOL,13.0,3_3C,Pacific Gas & Electric Company,39655.8543703,-122.08959999971,37.7072299997388,Bay Area,POINT (-183869.4031464789 -32510.04685731232),702301.3330140249,1020418.6276391317,3.305548194868004,42043.92707005096,3474.4556807892236,1722719.9606531565
64,1611506090385,79292881,Creekside Middle,Middle,SCHOOL,16.0,3_3C,Pacific Gas & Electric Company,74811.81453089998,-122.060780000066,37.6992000000597,Bay Area,POINT (-181352.06897464732 -33458.03398789046),1240040.8914615582,1737500.7062297806,3.56721511998486,90128.08600093669,8037.656777945927,2977541.5976913385
65,1611506090393,X,Independent Elementary,Elementary,SCHOOL,,,,69448.2338431746,-122.050760000211,37.6985500001714,,POINT (-180471.57336327588 -33549.404207708314),1248419.6862693685,1730892.9049812378,3.3410281820647554,81915.2501093878,6842.028978908692,2979312.5912506063
66,1611506090401,79292897,Marshall Elementary,Elementary,SCHOOL,13.0,3_3C,Pacific Gas & Electric Company,41063.3653348,-122.066469999681,37.698649999949,Bay Area,POINT (-181854.29009384412 -33508.256573378574),722586.2168968343,1057469.3345708423,3.3487671362917495,44042.84009281781,3687.230387294524,1780055.5514676766
67,1611506090419,X,Palomares Elementary,Elementary,SCHOOL,,,,10848.775725331348,-122.0254199999,37.6945799997097,,POINT (-178250.29776439266 -34038.59394422406),140005.98481724432,202654.6311237983,4.434427660461278,10987.577726762196,1218.0904648255632,342660.6159410426
68,1611506090435,2595142,Proctor Elementary,Elementary,SCHOOL,21.0,3_3C,Pacific Gas & Electric Company,44234.3347249,-122.072600000387,37.7163899999942,Bay Area,POINT (-182350.80662923033 -31524.85882662842),781118.9225935242,1138330.1859752736,3.26536344218044,46669.73768332078,3809.8413821816634,1919449.1085687978
69,1611506090468,349295674,Stanton Elementary,Elementary,SCHOOL,11.0,3_3C,Pacific Gas & Electric Company,37217.5771202,-122.093790000408,37.7004499997648,Bay Area,POINT (-184254.84941065544 -33255.43149934057),629108.0223222539,925678.8330746698,3.443280317974807,39113.88248331386,3367.0015428593542,1554786.8553969236
70,1611506090484,186603378,Vannoy Elementary,Elementary,SCHOOL,7.0,3_3C,Pacific Gas & Electric Company,42858.8031553,-122.058769999696,37.7071199996569,Bay Area,POINT (-181156.0119532648 -32581.650550524704),727514.0344729075,1067678.6020876777,3.2678319881446143,43627.87222558829,3564.2139108365845,1795192.6365605853
71,1611506097653,186603373,Canyon Middle,Middle,SCHOOL,21.0,3_3C,Pacific Gas & Electric Company,161145.659684,-122.050979999899,37.7057300000977,Bay Area,POINT (-180473.67458173906 -32750.999138935003),2410928.411663635,3212174.0879031066,3.701699620124687,196883.43039094744,18220.082987175385,5623102.499566741
72,1611506113005,466208730,Jensen Ranch Elementary,Elementary,SCHOOL,11.0,3_3C,Pacific Gas & Electric Company,39237.5626375,-122.030950000074,37.7126300002607,Bay Area,POINT (-178694.15511937428 -32022.089107443113),681145.921531572,992952.892828383,3.4022801419255564,40914.75903661483,3480.086804548596,1674098.814359955
73,1611680132746,29217029,Emery Secondary,High,SCHOOL,5.0,3_3C,Pacific Gas & Electric Company,70314.3682819,-122.282189999442,37.8358199999231,Bay Area,POINT (-200476.6553683915 -17828.395293639507),1323580.6857199115,1840888.6228426625,3.6581742107802957,87585.32192756567,8010.059147957768,3164469.308562574
74,1611686090492,29217029,Anna Yates Elementary,Elementary,SCHOOL,5.0,3_3C,Pacific Gas & Electric Company,70314.3682819,-122.282409999577,37.8363099997203,Bay Area,POINT (-200494.67441941836 -17773.474027548917),1323581.1461450374,1840888.6228426625,3.659072707278534,87585.32192756567,8012.026525583993,3164469.7689877
75,1611760127233,X,Young Adult Program,Special Education,SCHOOL,,,,19460.606247258067,-121.99128000019,37.5382700001302,,POINT (-175609.67512345358 -51474.71242090082),270678.62440264766,370208.8825283144,3.7420536066718304,20144.551068623314,1884.5497495281688,640887.5069309621
76,1611760130062,39159601,American High,High,SCHOOL,1.0,3_3C,Pacific Gas & Electric Company,240164.03678,-122.016300000459,37.5645100002761,Bay Area,POINT (-177754.89556257433 -48511.74857056048),3479390.9081674786,4323409.457662337,3.645396629251342,295646.70778129087,26943.737799879356,7802800.365829816
77,1611760130138,9065269,Robertson High (Continuation),Continuation,SCHOOL,1.0,3_3C,Pacific Gas & Electric Company,57132.3610525,-121.964459999619,37.520149999697,Bay Area,POINT (-173285.34925720305 -53537.950163903646),1041487.5952174863,1497516.458069744,3.2988121117042764,62582.94266115495,5161.234230917805,2539004.0532872304
78,1611760130435,9065269,Vista Alternative,Alternative Schools of Choice,SCHOOL,1.0,3_3C,Pacific Gas & Electric Company,57132.3610525,-121.964270000147,37.5199900003545,Bay Area,POINT (-173268.9518970741 -53556.08001974458),1041487.5952174863,1497516.458069744,3.2988121117042764,62582.94266115495,5161.234230917805,2539004.0532872304
79,1611760130534,X,Circle of Independent Learning,K-12,SCHOOL,,,,52518.95941812638,-121.99128000019,37.5382700001302,,POINT (-175609.67512345358 -51474.71242090082),946358.2748226653,1348612.763634078,3.2133524263799496,59232.46762474445,4758.36983906111,2294971.038456743
80,1611760134270,39260124,Irvington High,High,SCHOOL,16.0,3_3C,Pacific Gas & Electric Company,277624.429347,-121.966309999491,37.5240200001699,Bay Area,POINT (-173439.67416789848 -53104.45134990942),3926169.078554404,4864259.555588415,3.7314646550689696,338686.73782470333,31594.939783337282,8790428.63414282
81,1611760134452,40218482,John F. Kennedy High,High,SCHOOL,14.0,3_3C,Pacific Gas & Electric Company,193313.893414,-121.986470000056,37.5291099999803,Bay Area,POINT (-175206.67173574056 -52501.66015828587),2975525.6121177836,3746149.28666708,3.719903176213365,243352.60483001964,22631.20319117465,6721674.898784864
82,1611760135244,38915607,Mission San Jose High,High,SCHOOL,10.0,3_3C,Pacific Gas & Electric Company,230493.031247,-121.934030000298,37.5445799999606,Bay Area,POINT (-170544.7563455531 -50877.97841594042),3458115.7350436463,4243850.1790929055,3.5761933592545465,286456.30026355403,25610.57796797871,7701965.914136551
83,1611760138693,492902543,Washington High,High,SCHOOL,23.0,3_3C,Pacific Gas & Electric Company,212338.577975,-121.994830000466,37.552840000273,Bay Area,POINT (-175888.7785686678 -49848.81532405643),3195305.7210519304,4050319.2232711944,3.6619093977848625,270356.28264989017,24750.505304645332,7245624.944323124
84,1611766000541,39260091,John Blacow Elementary,Elementary,SCHOOL,5.0,3_3C,Pacific Gas & Electric Company,75281.59149599998,-121.976060000353,37.5275000000171,Bay Area,POINT (-174291.92071999187 -52699.79317193059),1203859.2720193279,1688239.8665358536,3.2109346890889925,76144.4742041816,6112.373340116217,2892099.138555181
85,1611766000558,297190486,Brier Elementary,Elementary,SCHOOL,16.0,3_3C,Pacific Gas & Electric Company,96049.9306385,-121.984809999964,37.5407099998948,Bay Area,POINT (-175033.2150782957 -51215.50055747479),1628022.418645632,2242085.917372245,3.315768739125086,105538.37921163275,8748.521464196518,3870108.336017877
86,1611766000566,40255537,Cabrillo Elementary,Elementary,SCHOOL,8.0,3_3C,Pacific Gas & Electric Company,51316.1081048,-122.02356999966,37.5517199997934,Bay Area,POINT (-178426.3694561142 -49919.56249967776),893617.9450960112,1290975.9477534506,3.2386180282108743,55021.01359668951,4454.801164116858,2184593.8928494616
87,1611766000590,40479838,E. M. Grimmer Elementary,Elementary,SCHOOL,8.0,3_3C,Pacific Gas & Electric Company,73821.6516272,-121.95110000008,37.5201799999549,Bay Area,POINT (-172106.37276543112 -53558.96376035549),1207776.944860851,1682917.0750504371,3.4576342531360953,75962.47051854487,6566.2610004440385,2890694.0199112883
88,1611766000624,40255525,Glenmoor Elementary,Elementary,SCHOOL,12.0,3_3C,Pacific Gas & Electric Company,71329.9942209,-122.004789999507,37.5450799997406,Bay Area,POINT (-176785.514889392 -50692.72845498938),1158424.6136156044,1624617.5864224473,3.442767153350351,74406.78524680102,6404.130905852001,2783042.2000380517
89,1611766000640,382350400,Harvey Green Elementary,Elementary,SCHOOL,9.0,3_3C,Pacific Gas & Electric Company,54028.0664519,-121.959450000005,37.5194700004108,Bay Area,POINT (-172844.82141002564 -53622.67570379842),908504.1508189215,1299124.2433033285,3.453958288666943,55143.89276387335,4761.617637028536,2207628.39412225
90,1611766000665,291934082,J. Haley Durham Elementary,Elementary,SCHOOL,11.0,3_3C,Pacific Gas & Electric Company,75437.7680977,-121.966299999683,37.54268000029,Bay Area,POINT (-173395.7737612276 -51030.58344647894),1208227.6375447689,1696898.2703165938,3.216197622607084,75916.98520380305,6104.100683199214,2905125.9078613627
91,1611766000673,1752726,James Leitch Elementary,Elementary,SCHOOL,19.0,3_3C,Pacific Gas & Electric Company,63226.3680241,-121.922980000225,37.4874499999871,Bay Area,POINT (-169698.80067827992 -57247.326731937006),1073059.5316622162,1514262.9064395637,3.217988381162378,67819.35876341301,5456.047712963649,2587322.4381017797
92,1611766000681,297190632,Joseph Azevada Elementary,Elementary,SCHOOL,6.0,3_3C,Pacific Gas & Electric Company,74467.31292919998,-121.993940000319,37.5315400003763,Bay Area,POINT (-175860.0726691092 -52217.75239620311),1198539.4523667614,1682797.038776562,3.254424065868916,76639.633709226,6235.446708567092,2881336.4911433235
93,1611766000715,40255529,Tom Maloney Elementary,Elementary,SCHOOL,8.0,3_3C,Pacific Gas & Electric Company,59806.5029963,-121.99798999949,37.5459200003069,Bay Area,POINT (-176183.708712588 -50612.035140970256),1013055.5307479542,1444191.2533834737,3.2316226670822807,64539.61613943219,5214.192161024462,2457246.7841314278
94,1611766000723,297190488,John G. Mattos Elementary,Elementary,SCHOOL,12.0,3_3C,Pacific Gas & Electric Company,63506.3291891,-122.011759999793,37.5387900004523,Bay Area,POINT (-177415.1843346057 -51378.77152631385),1045151.1439838003,1478616.5259264528,3.3341911144348693,65091.1494983869,5425.658307146832,2523767.669910253
95,1611766000749,355803146,Mission Valley Elementary,Elementary,SCHOOL,16.0,3_3C,Pacific Gas & Electric Company,76651.6561261,-121.946740000343,37.5363899997606,Bay Area,POINT (-171684.64057656657 -51765.27559656603),1224104.751625113,1715432.4094235078,3.203946332081005,77504.73071956987,6208.024942697297,2939537.161048621
96,1611766000756,37584756,Niles Elementary,Elementary,SCHOOL,14.0,3_3C,Pacific Gas & Electric Company,53279.7942474,-121.984530000325,37.576540000142,Bay Area,POINT (-174925.14729645746 -47233.8508217358),947164.8183978422,1351083.2704282322,3.200071113523419,57233.63072417938,4578.792210062822,2298248.0888260743
97,1611766000764,650560998,O. N. Hirsch Elementary,Elementary,SCHOOL,10.0,3_3C,Pacific Gas & Electric Company,45147.879485,-121.963990000337,37.5280199999603,Bay Area,POINT (-173225.75395421663 -52664.13230070565),782798.5277558714,1137510.1623455198,3.218146541475158,46404.422366768296,3733.4057837191963,1920308.6901013912
98,1611766000798,349306142,Parkmont Elementary,Elementary,SCHOOL,12.0,3_3C,Pacific Gas & Electric Company,62875.8967782,-121.983630000305,37.5609399996308,Bay Area,POINT (-174882.0705071673 -48969.30690274248),1026909.0670521305,1458629.1395521003,3.2073235549867736,63682.9277874378,5106.2938585792745,2485538.2066042307
99,1611766000806,38738862,Patterson Elementary,Elementary,SCHOOL,21.0,3_3C,Pacific Gas & Electric Company,68161.8865845,-122.031370000151,37.5618299996093,Bay Area,POINT (-179090.27631661834 -48781.22840062855),1126370.9072779682,1588037.5834954523,3.19822613571986,71917.9238918207,5750.2445954383165,2714408.490773421
100,1611766000830,38916650,Vallejo Mill Elementary,Elementary,SCHOOL,13.0,3_3C,Pacific Gas & Electric Company,50852.9442536,-121.961090000241,37.5750199996533,Bay Area,POINT (-172861.81511716946 -47445.79947241675),870405.033481168,1252173.57810456,3.2308210928842747,52711.5896162516,4257.542889291135,2122578.611585728
101,1611766000848,39259623,Warm Springs Elementary,Elementary,SCHOOL,14.0,3_3C,Pacific Gas & Electric Company,78660.18152309998,-121.923789999833,37.4827400002388,Bay Area,POINT (-169780.93140380914 -57769.35068748426),1313235.1647639466,1825995.0412411287,3.2408236087756626,81681.19224052437,6617.858405150871,3139230.206005075
102,1611766056873,X,Centerville Junior High,Middle,SCHOOL,,,,82265.61158143062,-122.00141000045,37.5559000002843,,POINT (-176461.97068765532 -49496.49314306257),1409258.1912557536,1947428.2329183398,3.5037704862954113,90227.57904483433,7903.418212679421,3356686.4241740936
103,1611766056881,220503726,G. M. Walters Middle,Middle,SCHOOL,2.0,3_3C,Pacific Gas & Electric Company,104854.22213,-121.983360000296,37.5367700002488,Bay Area,POINT (-174914.46238473474 -51656.070950600784),1657790.4954064304,2268129.6505689416,3.7116436653269207,128617.80292604036,11934.586336967599,3925920.145975372
104,1611766056907,39260131,John M. Horner Middle,Middle,SCHOOL,24.0,3_3C,Pacific Gas & Electric Company,177621.204122,-121.964163130098,37.5294021826948,Bay Area,POINT (-173237.8466173709 -52510.19899188401),2704830.1395521048,3496610.1141432985,3.7470698405112803,219774.52838591067,20587.762675685903,6201440.253695403
105,1611766056915,40255534,Thornton Junior High,Middle,SCHOOL,25.0,3_3C,Pacific Gas & Electric Company,117159.074873,-122.015550000044,37.5566600002461,Bay Area,POINT (-177707.30452811308 -49385.60285493126),1801449.2778522726,2447690.4215556565,3.6938796269113143,141406.12971327835,13058.430541706439,4249139.69940793
106,1611766056923,38915558,William Hopkins Junior High,Middle,SCHOOL,10.0,3_3C,Pacific Gas & Electric Company,102674.613042,-121.941880000203,37.5465600002874,Bay Area,POINT (-171232.72319141292 -50643.76152308937),1654278.2362188103,2262799.394297962,3.638098195304034,125627.6959813018,11426.14735074445,3917077.630516772
107,1611766066468,37784271,John Gomes Elementary,Elementary,SCHOOL,21.0,3_3C,Pacific Gas & Electric Company,74567.2074334,-121.948810000473,37.5510100002368,Bay Area,POINT (-171833.85702950574 -50136.637638651766),1203339.6658547358,1688889.341808126,3.2499110653296337,76274.8325369952,6197.160556703638,2892229.0076628616
108,1611766089320,349308594,Brookvale Elementary,Elementary,SCHOOL,11.0,3_3C,Pacific Gas & Electric Company,47300.3604567,-122.015319999946,37.5681599999982,Bay Area,POINT (-177659.84646277947 -48107.92581085302),810826.4304412935,1176531.8168226096,3.2605363766936537,49651.082672686396,4047.229029912949,1987358.2472639033
109,1611766089619,43968117,Warwick Elementary,Elementary,SCHOOL,24.0,3_3C,Pacific Gas & Electric Company,78679.1066714,-122.031930000106,37.5767699999577,Bay Area,POINT (-179104.07177987086 -47119.74551947648),1274738.5645626157,1774989.769948925,3.243432003155412,82192.32263346533,6664.630241076408,3049728.334511541
110,1611766090526,38915602,Joshua Chadbourne Elementary,Elementary,SCHOOL,12.0,3_3C,Pacific Gas & Electric Company,82184.2241224,-121.940429999901,37.5429600001465,Bay Area,POINT (-171113.00739960506 -51046.49010933936),1366582.992897487,1897187.8561208718,3.232622618428718,88795.23791096741,7176.037361993811,3263770.8490183586
111,1611766090534,39260276,Mission San Jose Elementary,Elementary,SCHOOL,14.0,3_3C,Pacific Gas & Electric Company,59005.0001952,-121.922179999816,37.5283099997792,Bay Area,POINT (-169536.0926524578 -52707.51786654815),1008596.38380325,1448961.4002639495,3.2026865326065255,62078.06488541433,4970.414559469763,2457557.7840671996
112,1611766090542,349311586,Oliveira Elementary,Elementary,SCHOOL,22.0,3_3C,Pacific Gas & Electric Company,66686.4783278,-122.017009999777,37.5604999998385,Bay Area,POINT (-177826.99221878772 -48956.08723065676),1133995.1552909964,1593896.9260956522,3.1979689072351953,70499.97847058732,5636.418477742223,2727892.0813866486
113,1611766090559,40300761,Steven Millard Elementary,Elementary,SCHOOL,5.0,3_3C,Pacific Gas & Electric Company,65088.7833805,-121.974869999435,37.5196399997451,Bay Area,POINT (-174205.1228712196 -53575.54495094996),1093758.830636632,1539499.7141110185,3.266420899162135,68358.64719965488,5582.202846285096,2633258.5447476506
114,1611766104723,40316453,Ardenwood Elementary,Elementary,SCHOOL,19.0,3_3C,Pacific Gas & Electric Company,64239.2581399,-122.052889999891,37.5725699997479,Bay Area,POINT (-180962.2988134131 -47546.71007250808),1068943.5937133036,1517133.8500065024,3.1967746519589473,67242.7852266234,5374.0007834897315,2586077.443719806
115,1611766106983,39245165,Fred E. Weibel Elementary,Elementary,SCHOOL,20.0,3_3C,Pacific Gas & Electric Company,68792.3020756,-121.926479999843,37.5061999996551,Bay Area,POINT (-169965.43254873235 -55157.1547447755),1137317.3893462222,1597737.7219484416,3.299980060139403,71790.56251454224,5922.685620104517,2735055.1112946635
116,1611766111330,28779808,Forest Park Elementary,Elementary,SCHOOL,9.0,3_3C,Pacific Gas & Electric Company,75576.7382259,-122.052119999852,37.5620800002411,Bay Area,POINT (-180919.64018678138 -48714.02811802225),1212383.5068546494,1703731.0277024652,3.248922422510065,78822.69185305185,6402.22027409954,2916114.5345571144
117,1611920108670,649813012,Leadership Public Schools - Hayward,High,SCHOOL,15.0,3_3C,Pacific Gas & Electric Company,54749.1691857,-122.086790000006,37.6232500002533,Bay Area,POINT (-183827.53635562796 -41848.94479061011),1108398.1674709935,1570523.1980759595,3.2014256483423704,69056.86204325288,5527.0102334827625,2678921.365546953
118,1611920111815,767924567,Stonebrae Elementary,Elementary,SCHOOL,8.0,3_3C,Pacific Gas & Electric Company,60280.4666725,-122.017589999426,37.6535999997322,Bay Area,POINT (-177657.91567363706 -38607.843097226694),1233556.2767357097,1728796.7371127831,3.213584958771004,76333.50129156277,6132.604790022328,2962353.013848493
119,1611920119248,186603376,Golden Oak Montessori of Hayward,Elementary,SCHOOL,3.0,3_3C,Pacific Gas & Electric Company,30567.6304535,-122.070190000325,37.6878399995602,Bay Area,POINT (-182208.00027115038 -34702.53017854877),456989.23773246875,675649.1925785376,3.5232668119431154,30641.482792917443,2698.9529848253014,1132638.4303110065
120,1611920127696,X,Knowledge Enlightens You (KEY) Academy,Elementary,SCHOOL,,,,56115.139720321866,-122.072219999845,37.6771300003372,,POINT (-182412.74769622856 -35888.92853128398),1109778.7457708698,1577233.968730262,3.252363768951634,68079.10297709974,5535.450198636163,2687012.714501132
121,1611920127944,10825039,Silver Oak High Public Montessori Charter,High,SCHOOL,1.0,3_3C,Pacific Gas & Electric Company,198599.173617,-122.098717999452,37.6720360003569,Bay Area,POINT (-184758.56501468294 -36403.73613392748),3232376.21608358,3848971.0698497384,3.6927109559758313,246341.58760999126,22741.70698699737,7081347.285933319
122,1611920131334,X,Highland,Special Education,SCHOOL,,,,33157.82416644501,-122.056550000107,37.6614199999828,,POINT (-181070.79801960217 -37664.984042384196),653875.2211233787,916877.3069378457,3.776148411455981,39610.03413426859,3739.3341868458883,1570752.5280612244
123,1611920133009,10825039,Brenkwitz High,Continuation,SCHOOL,1.0,3_3C,Pacific Gas & Electric Company,198599.173617,-122.098340000398,37.6725900003765,Bay Area,POINT (-184723.91519082413 -36342.90219381405),3232376.21608358,3848971.0698497384,3.6796745478255652,246341.58760999126,22661.42174998566,7081347.285933319
124,1611920133629,155528401,Hayward High,High,SCHOOL,22.0,3_3C,Pacific Gas & Electric Company,212315.791248,-122.068500000393,37.6717999997676,Bay Area,POINT (-182098.1080918872 -36488.45646156417),3396420.8475017184,4306730.625113313,3.647108591224701,287996.06765305286,26258.82331440948,7703151.4726150315
125,1611920135319,40476366,Mt. Eden High,High,SCHOOL,11.0,3_3C,Pacific Gas & Electric Company,234938.392653,-122.09014000036,37.624800000189,Bay Area,POINT (-184118.93385558663 -41670.17629834218),3724698.1943198997,4733595.154809198,3.662553081456095,321620.68775400665,29448.82102483664,8458293.349129098
126,1611920137646,496714787,Impact Academy of Arts & Technology,K-12,SCHOOL,1.0,3_3C,Pacific Gas & Electric Company,39627.7673964,-122.102909999672,37.6309299998237,Bay Area,POINT (-185229.06368770535 -40964.01181320893),747567.4249063309,1070133.7696246305,3.291912189065628,44299.293950913525,3645.7346431003366,1817701.1945309613
127,1611920138339,407800032,Tennyson High,High,SCHOOL,9.0,3_3C,Pacific Gas & Electric Company,215540.193056,-122.066420000329,37.6418300002262,Bay Area,POINT (-181987.54983501448 -39823.29991387995),3488107.0277668256,4378442.644986846,3.6487404888517934,296118.5566888346,27011.494182272647,7866549.672753671
128,1611926000889,28671566,Bowman Elementary,Elementary,SCHOOL,10.0,3_3C,Pacific Gas & Electric Company,52994.9643778,-122.062679999549,37.64275999972,Bay Area,POINT (-181655.81841024273 -39727.1163106747),1073444.222932295,1519346.7957489425,3.234843160979906,65974.94246529612,5335.464785747648,2592791.0186812375
129,1611926000905,345641606,Burbank Elementary,Elementary,SCHOOL,1.0,3_3C,Pacific Gas & Electric Company,49239.2988547,-122.09519999974,37.6661400000705,Bay Area,POINT (-184463.25066801152 -37065.863605410326),951783.9757654965,1371976.0144699123,3.301595924857981,61160.88101810042,5048.212888252105,2323759.990235409
130,1611926000913,780653815,Cherryland Elementary,Elementary,SCHOOL,6.0,3_3C,Pacific Gas & Electric Company,67676.0736799,-122.094980000059,37.6725199999837,Bay Area,POINT (-184428.20498825714 -36357.22640679311),1305901.8661373649,1825659.0341437857,3.211571501450746,83172.04726767387,6677.824418054394,3131560.900281151
131,1611926000921,69502453,East Avenue Elementary,Elementary,SCHOOL,2.0,3_3C,Pacific Gas & Electric Company,53908.5745654,-122.054930000282,37.6714000002056,Bay Area,POINT (-180904.0733171855 -36558.90318088001),942092.601745781,1353305.1360566805,3.231698896338633,57651.43176863071,4657.801710475646,2295397.7378024617
132,1611926000947,X,Eldridge Elementary,Elementary,SCHOOL,,,,51811.350677974406,-122.08591000018,37.6360300001705,,POINT (-183718.73760151744 -40430.298801203724),1004758.3356919325,1424454.43508851,3.2664053057077655,59667.03840861771,4872.418270844448,2429212.7707804423
133,1611926000962,349316160,Fairview Elementary,Elementary,SCHOOL,2.0,3_3C,Pacific Gas & Electric Company,38631.032727,-122.05280000055,37.6805799995827,Bay Area,POINT (-180694.4060217155 -35542.7029994973),609465.0620616978,904824.0081279953,3.539423478480786,39118.38718451475,3461.4134510293347,1514289.070189693
134,1611926000988,X,Glassbrook Elementary,Elementary,SCHOOL,,,,56916.6535399652,-122.080169999784,37.6416000002756,,POINT (-183199.4401765754 -39822.36782396305),1095776.3999313796,1565761.8669414492,3.3017088201739906,67175.825429475,5544.875383074146,2661538.266872829
135,1611926000996,297312336,Harder Elementary,Elementary,SCHOOL,22.0,3_3C,Pacific Gas & Electric Company,67283.6396464,-122.098459999605,37.6756699997996,Bay Area,POINT (-184726.9045532824 -36000.361061133444),1187234.2566520113,1665482.003471566,3.2123793571654904,73633.28621781715,5913.45121615935,2852716.260123577
136,1611926001044,246539680,Longwood Elementary,Elementary,SCHOOL,18.0,3_3C,Pacific Gas & Electric Company,63607.4575672,-122.109559999558,37.6584500000391,Bay Area,POINT (-185746.92121878036 -37892.46910189325),1277586.1271017813,1784280.3055728644,3.2351702439454972,79929.70610659635,6464.65517008423,3061866.4326746454
137,1611926001051,X,Lorin A. Eden Elementary,Elementary,SCHOOL,,,,52980.0103625303,-122.100149999915,37.6248200002225,,POINT (-185000.92777753406 -41648.458216976374),1038907.5833687903,1474853.225242397,3.2057472887412386,62878.2128475469,5039.29150892295,2513760.808611187
138,1611926001093,463573502,Palma Ceia Elementary,Elementary,SCHOOL,5.0,3_3C,Pacific Gas & Electric Company,64370.059189,-122.08643999956,37.6275000001309,Bay Area,POINT (-183786.29851658727 -41377.284391622525),1272804.8689801856,1779761.3263196321,3.208769559260671,79428.15909223199,6371.666476081692,3052566.1952998177
139,1611926001101,X,Park Elementary,Elementary,SCHOOL,,,,53108.36786308632,-122.093149999619,37.653750000403,,POINT (-184313.11793951315 -38446.86133127753),1055071.0663743112,1501352.828505686,3.218742395570745,63392.32075784518,5101.088759422391,2556423.8948799972
140,1611926001127,40476352,Ruus Elementary,Elementary,SCHOOL,11.0,3_3C,Pacific Gas & Electric Company,55104.1305525,-122.07369999963,37.6269600004468,Bay Area,POINT (-182665.04736614294 -41461.9322509747),1133995.3306422574,1604802.0602487465,3.213086860493516,70059.65905416083,5627.694248939494,2738797.390891004
141,1611926001135,X,Schafer Park Elementary,Elementary,SCHOOL,,,,46681.50399172902,-122.086550000272,37.6420799998895,,POINT (-183760.32324953726 -39756.66830143286),815671.6142838224,1196502.1311012495,3.253828030505882,53914.2414892366,4385.691755028531,2012173.7453850717
142,1611926001176,349336610,Southgate Elementary,Elementary,SCHOOL,15.0,3_3C,Pacific Gas & Electric Company,59896.208329,-122.094529999918,37.6383000003122,Bay Area,POINT (-184472.61220451072 -40161.26806376455),1231846.436840331,1721771.0849471958,3.222856959147622,77644.8136710623,6255.953202037588,2953617.521787527
143,1611926001192,28773527,Treeview Elementary,Elementary,SCHOOL,6.0,3_3C,Pacific Gas & Electric Company,35595.7690856,-122.037420000214,37.6246499995503,Bay Area,POINT (-179473.77222908594 -41787.98711625626),684799.9310682742,1003690.2766045239,3.6876382622575306,43806.3399339814,4038.5483817502454,1688490.207672798
144,1611926056931,2099387,Bret Harte Middle,Middle,SCHOOL,5.0,3_3C,Pacific Gas & Electric Company,59442.5633323,-122.07754000022,37.6693600001547,Bay Area,POINT (-182900.12792254542 -36742.22678437084),1135500.3874208399,1593863.9223847457,3.521310844046701,79550.75992944698,7003.073839792936,2729364.3098055855
145,1611926056949,155252956,Cesar Chavez Middle,Middle,SCHOOL,3.0,3_3C,Pacific Gas & Electric Company,73865.0645641,-122.063330000571,37.6361100003886,Bay Area,POINT (-181729.16799631127 -40464.94682619767),1306948.212387677,1818843.439614102,3.584292219460012,97396.52507789298,8727.440175978343,3125791.652001779
146,1611926056956,451777798,Anthony W. Ochoa Middle,Middle,SCHOOL,1.0,3_3C,Pacific Gas & Electric Company,49562.8698414,-122.109479999679,37.640419999829,Bay Area,POINT (-185784.46749655987 -39896.44872627454),889870.1814734817,1283288.4896959686,3.519280695543098,64445.197796278335,5670.018513122473,2173158.6711694505
147,1611926056972,431580180,Winton Middle,Middle,SCHOOL,6.0,3_3C,Pacific Gas & Electric Company,70662.5297967,-122.090190000541,37.6598099996507,Bay Area,POINT (-184037.5435319851 -37779.11326798564),1296825.0699959064,1813587.2780841345,3.5312380701636674,93655.20848956706,8267.970942186867,3110412.348080041
148,1611926062160,134659129,Strobridge Elementary,Elementary,SCHOOL,6.0,3_3C,Pacific Gas & Electric Company,62546.0395175,-122.088410000015,37.6877899996079,Bay Area,POINT (-183812.25938631804 -34672.899980581366),1261794.6496440638,1773549.4399198275,3.215758994104253,78092.39550263199,6278.1580802183835,3035344.0895638913
149,1611926066476,463573517,"Martin Luther King, Jr. Middle",Middle,SCHOOL,6.0,3_3C,Pacific Gas & Electric Company,110275.147178,-122.091630000315,37.6348300001,Bay Area,POINT (-184225.63051725482 -40552.56051181909),1906716.4180882475,2560465.3605676023,3.7031997983101053,151120.22181360977,13990.709373518452,4467181.778655849
150,1611926090583,451777808,Eden Gardens Elementary,Elementary,SCHOOL,1.0,3_3C,Pacific Gas & Electric Company,44791.1609118,-122.10750000005,37.637369999833,Bay Area,POINT (-185617.5705165671 -40239.30028549861),906200.5548032717,1295408.7996303677,3.249455166069847,54581.73338590757,4434.02238809711,2201609.3544336394
151,1611926104566,X,Tyrrell Elementary,Elementary,SCHOOL,,,,84979.61186311452,-122.075679999745,37.6384799998832,,POINT (-182811.47811989722 -40177.79258420598),1461278.0924188287,2007380.6871963234,3.507271458691993,99971.25568311848,8765.65829367503,3468658.779615152
152,1611926113815,X,Faith Ringgold School of Arts and Science,Elementary,SCHOOL,,,,14113.250435395576,-122.072219999845,37.6771300003372,,POINT (-182412.74769622856 -35888.92853128398),213055.19317796113,293849.97365831514,4.187840546571167,14532.041642157214,1521.4468303371657,506905.1668362763
153,1612000130393,X,Vineyard Alternative,Alternative Schools of Choice,SCHOOL,,,,67582.42935538685,-121.74087999978,37.6766000002443,,POINT (-153236.52272910153 -36534.66081879288),1268429.6071644067,1784673.8404822443,3.3729078430750974,77675.55343667853,6549.812085044296,3053103.447646651
154,1612000132670,936459680,Del Valle Continuation High,Continuation,SCHOOL,1.0,12_3C,Pacific Gas & Electric Company,28530.7850362,-121.766669999899,37.6786199999236,Bay Area,POINT (-155503.45531593633 -36268.12813795125),483724.26551305025,711490.6041697126,4.351759381834278,32659.350752868188,3553.1409010852635,1195214.8696827628
155,1612000133397,35577836,Granada High,High,SCHOOL,15.0,12_3C,Pacific Gas & Electric Company,241438.603195,-121.787819999777,37.6748499998379,Bay Area,POINT (-157373.8086296185 -36652.23213168746),3798897.297917286,4210801.2891564425,2.5568636371405833,293960.16986048257,18790.401727098426,8009698.587073728
156,1612000134536,24303469,Livermore High,High,SCHOOL,30.0,12_3C,Pacific Gas & Electric Company,224312.985295,-121.761439999846,37.6807200004394,Bay Area,POINT (-155038.56782055763 -36043.2900995058),3609758.188757015,4046558.831575083,2.6868173011603136,281858.7820629511,18932.576303267786,7656317.020332098
157,1612000135376,X,Lawrence Elementary,Elementary,SCHOOL,,,,45629.64436363375,-121.770589999546,37.6900700001975,,POINT (-155824.87792243666 -34989.05890879035),840818.9438280258,1216063.0510313076,3.5275043768765575,49352.48984874488,4352.278098780086,2056881.9948593334
158,1612006001234,349338591,Junction K-8,Elementary,SCHOOL,60.0,12_3C,Pacific Gas & Electric Company,122490.76739,-121.766439999642,37.6878499998451,Bay Area,POINT (-155464.0854183758 -35242.621410294436),1951498.3303487776,2606123.9779489785,3.703431540027213,127162.96760185873,11773.483623504557,4557622.308297756
159,1612006001242,349340425,East Avenue Middle,Middle,SCHOOL,8.0,12_3C,Pacific Gas & Electric Company,81386.4747457,-121.750850000259,37.6787300003499,Bay Area,POINT (-154110.12888974472 -36281.74803298619),1434917.2744719067,1984406.5010942519,3.6929509875037314,95781.95298574888,8842.951446593932,3419323.775566159
160,1612006001259,12007026,Emma C. Smith Elementary,Elementary,SCHOOL,6.0,12_3C,Pacific Gas & Electric Company,63973.7572746,-121.797489999801,37.6660899995971,Bay Area,POINT (-158243.84231312264 -37609.766905857716),1159783.5987775242,1637011.5201745236,3.3092529481998096,67963.74897473556,5622.7309166338855,2796795.118952048
161,1612006001283,349340498,Jackson Avenue Elementary,Elementary,SCHOOL,14.0,12_3C,Pacific Gas & Electric Company,82077.1144364,-121.741730000556,37.6851499996014,Bay Area,POINT (-153293.91540445422 -35582.97708775569),1455356.9712097426,2007627.736633462,3.3932860164104746,89847.01381830803,7621.915390147583,3462984.7078432045
162,1612006001291,X,Joe Michell,Elementary,SCHOOL,,,,83266.51066251636,-121.783499999842,37.6692999995873,,POINT (-157004.98027522446 -37276.26007276727),1621871.2135407394,2223362.6046424196,3.4782807675951943,107152.1950256566,9317.63547908377,3845233.818183159
163,1612006001317,X,Marylin Avenue Elementary,Elementary,SCHOOL,,,,45629.64436363375,-121.785719999817,37.684440000004,,POINT (-157168.796929519 -35589.82512295572),835854.0083005319,1215317.9560577532,3.4269330102078803,49441.11774467334,4235.784961519892,2051171.964358285
164,1612006001341,12007024,William Mendenhall Middle,Middle,SCHOOL,18.0,12_3C,Pacific Gas & Electric Company,124452.108159,-121.793679999544,37.6628499995792,Bay Area,POINT (-157915.09603798727 -37976.23590903636),2082669.6274075527,2766687.206657566,3.7352804687637287,151509.89689953058,14148.29896783057,4849356.834065119
165,1612006071906,546980831,Arroyo Seco Elementary,Elementary,SCHOOL,18.0,12_3C,Pacific Gas & Electric Company,53891.1098373,-121.728490000032,37.6843600002276,Bay Area,POINT (-152129.70513777767 -35692.121897458564),954925.964056797,1350894.2508900275,3.316152103877785,55938.08979363824,4637.480353901947,2305820.2149468246
166,1612006085773,687893493,Andrew N. Christensen Middle,Middle,SCHOOL,4.0,12_3C,Pacific Gas & Electric Company,123790.891801,-121.729100000411,37.7260600002489,Bay Area,POINT (-152098.87816812893 -31056.28519389592),2064635.9467683889,2755848.7024949,3.6798038680015788,147952.65339376367,13610.918655986712,4820484.649263289
167,1612006089338,X,Rancho Las Positas Elementary,Elementary,SCHOOL,,,,66533.36061411459,-121.796640000188,37.6880100001733,,POINT (-158122.80538839696 -35174.8655398665),1281269.037555353,1790307.8477604925,3.3160290443626863,78316.81531992,6492.520856571083,3071576.8853158457
168,1612006097661,12025305,Sunset Elementary,Elementary,SCHOOL,8.0,12_3C,Pacific Gas & Electric Company,56524.6223459,-121.774089999644,37.6627199999617,Bay Area,POINT (-156189.92800927602 -38023.15426616371),1038997.9935599318,1475317.835955316,3.374251396916352,60154.57748756917,5074.41667795858,2514315.8295152476
169,1612006110332,X,Leo R. Croce Elementary,Elementary,SCHOOL,,,,61308.7982255134,-121.728950000115,37.7176900000543,,POINT (-152102.64475208655 -31986.832665325608),1126879.552574145,1593563.1867927555,3.2994882620648895,68564.35181393131,5655.681850153846,2720442.7393669
170,1612006117543,687918943,Altamont Creek Elementary,Elementary,SCHOOL,9.0,12_3C,Pacific Gas & Electric Company,62319.0234591,-121.718460000229,37.7226299998774,Bay Area,POINT (-151169.42186446668 -31454.54961833125),1110676.7247265691,1578590.2667506777,3.237673981821396,65038.10619703952,5264.304606527294,2689266.991477247
171,1612186001358,497256986,Mountain House Elementary,Elementary,SCHOOL,1.0,12_3C,Pacific Gas & Electric Company,3135.42550233,-121.578040000222,37.7872899999278,Bay Area,POINT (-138691.4637871854 -24482.400722123682),52876.54631394895,86009.98799371495,3.2582970253948775,3416.212942364841,278.2759117055711,138886.5343076639
172,1612340130054,39245355,Newark Memorial High,High,SCHOOL,26.0,3_3C,Pacific Gas & Electric Company,315001.89799,-122.001950000046,37.520850000196,Bay Area,POINT (-176591.86579332463 -53390.94171656296),4336969.616364272,5273203.390483896,3.644561363844239,372662.1268042445,33954.749727969305,9610173.006848168
173,1612340130484,X,Crossroads High (Alternative),Alternative Schools of Choice,SCHOOL,,,,27218.46543881166,-122.036300000196,37.546859999678,,POINT (-179560.79900084765 -50435.65443577245),388621.0723026758,547234.5618629671,4.720282087400323,32678.80114936395,3856.3289925764934,935855.6341656429
174,1612340135426,X,Bridgepoint High (Continuation),Continuation,SCHOOL,,,,24713.212411347675,-122.043000000325,37.548690000174,,POINT (-180147.4139010797 -50219.55360504892),398195.92207818164,526055.2509175668,4.1633343720872125,27524.326317729374,2864.824345678684,924251.1729957485
175,1612346001440,X,August Schilling Elementary,Elementary,SCHOOL,,,,59113.635407891365,-122.047129999578,37.52800999989,,POINT (-180561.34084854607 -52510.0446418426),1045364.980772089,1504516.8560678177,3.226470551048337,65707.79635048215,5300.106747477801,2549881.836839907
176,1612346001457,X,E. L. Musick Elementary,Elementary,SCHOOL,,,,51790.59263731829,-122.030820000513,37.5437299999069,,POINT (-179084.86724730104 -50793.890190203674),1027828.8871417154,1449306.7892066247,3.230171240815436,60366.494111028594,4874.852829657473,2477135.67634834
177,1612346001473,X,H. A. Snow Elementary,Elementary,SCHOOL,,,,55793.101878123394,-122.048919999722,37.542599999991,,POINT (-180684.22536998836 -50885.118644999806),1075449.661824458,1529418.5859275074,3.227225425236276,63626.26373140481,5133.407400669459,2604868.247751965
178,1612346001481,X,James A. Graham Elementary,Elementary,SCHOOL,,,,50726.13693735371,-122.042210000112,37.5387800002125,,POINT (-180101.4587718891 -51322.44241352705),869838.3776690299,1250153.9569229428,3.2538366356125445,53238.2219945993,4330.711928522519,2119992.3345919726
179,1612346001499,X,Birch Grove Primary,Elementary,SCHOOL,,,,84297.35685796279,-122.015619999617,37.5292100001152,,POINT (-177778.34763082906 -52436.25459072692),1422912.223283041,1967806.5385478132,3.477419515564495,94292.51484241511,8197.365782116727,3390718.761830854
180,1612346001507,X,John F. Kennedy Elementary,Elementary,SCHOOL,,,,45732.38092205822,-122.042589999761,37.5521099997299,,POINT (-180103.05898395128 -49840.237473397516),829523.3645834666,1207219.6726783798,3.2811192179950712,48145.772294017566,3949.300468477892,2036743.0372618465
181,1612346001523,X,Lincoln Elementary,Elementary,SCHOOL,,,,52325.9258169502,-122.052520000231,37.5358200003388,,POINT (-181018.1095223158 -51631.768608070444),1005819.4500405937,1426641.8944608024,3.214608011077067,60807.89239973144,4886.838451122225,2432461.344501396
182,1612346001531,X,Birch Grove Intermediate,Elementary,SCHOOL,,,,67165.96029602322,-122.022719999902,37.5346300001847,,POINT (-178391.9256444271 -51820.53597485321),1134274.0925201855,1603871.7607126692,3.2143028484083573,71217.49368831063,5722.864820471026,2738145.853232855
183,1612346102917,101154252,Newark Junior High,Middle,SCHOOL,1.0,3_3C,Pacific Gas & Electric Company,166377.537575,-122.040729999763,37.5423100001872,Bay Area,POINT (-179962.4499789907 -50932.933620089665),2469032.9699613326,3215311.8788141487,3.680653136695251,198382.17936444696,18254.399768554787,5684344.848775482
184,1612420110460,X,Core Learning Academy at Conley-Caraballo High,Continuation,SCHOOL,,,,30104.306984073628,-122.0280399997,37.61511000034,,POINT (-178669.9125127082 -42865.9877975625),498339.5022281482,713654.7892499679,4.397468164787358,32249.574622128166,3545.4119432185726,1211994.291478116
185,1612420110478,X,Alternative Learning Academy at Conley-Caraballo High,Alternative Schools of Choice,SCHOOL,,,,53895.711948919765,-122.028030000357,37.6147700000513,,POINT (-178669.83971563066 -42903.79430140136),1005480.748858996,1412408.2720042407,3.2198433819290435,59430.00491081486,4783.882700002445,2417889.020863237
186,1612420126763,X,Decoto School for Independent Study,Alternative Schools of Choice,SCHOOL,,,,25133.156841761604,-122.028159999682,37.6064199995916,,POINT (-178701.15190917658 -43831.568336847704),411242.61455176014,560373.528922845,4.279523263670294,28936.45951507804,3095.8562915757525,971616.1434746052
187,1612420134668,124954655,James Logan High,High,SCHOOL,15.0,3_3C,Pacific Gas & Electric Company,515823.245961,-122.025239999863,37.5914599996353,Bay Area,POINT (-178479.30775135808 -45499.72492723586),6881909.275794227,7195733.466209978,2.7656435512106636,596228.546185308,41223.89084512766,14077642.742004205
188,1612426001572,610373298,Alvarado Elementary,Elementary,SCHOOL,20.0,3_3C,Pacific Gas & Electric Company,79145.8547662,-122.0767800004,37.5954800004082,Bay Area,POINT (-183013.08920116487 -44954.639747050125),1308516.4413675698,1817700.5292487033,3.2452049982863214,84479.31836815439,6853.817655503901,3126216.970616273
189,1612426001606,X,Hillview Crest Elementary,Elementary,SCHOOL,,,,72031.45777850912,-122.035180000521,37.6146100001238,,POINT (-179300.34562368298 -42908.071894971654),1267509.3645361697,1753396.0881440279,3.3692274212131808,88525.47245999188,7456.561232201423,3020905.4526801975
190,1612426001622,X,Searles Elementary,Elementary,SCHOOL,,,,61298.99413633493,-122.027699999462,37.5955399998832,,POINT (-178686.4735293984 -45041.638161799405),1063727.1427788094,1526313.5835530485,3.2426860721210824,67759.13412823119,5493.04001241499,2590040.726331858
191,1612426068266,610373294,Itliong-Vera Cruz,Middle,SCHOOL,12.0,3_3C,Pacific Gas & Electric Company,167472.568428,-122.075790000446,37.594499999989,Bay Area,POINT (-182928.20480900648 -45065.467178790364),2673024.123448805,3193059.054572018,3.90061718074492,204660.46315694807,19957.552970230106,5866083.178020823
192,1612426097679,79430607,Cesar Chavez Middle,Middle,SCHOOL,6.0,3_3C,Pacific Gas & Electric Company,145658.808391,-122.048259999527,37.5911800001807,Bay Area,POINT (-180509.34204814656 -45487.24056313699),2245874.1411444466,2995415.4303572187,3.7065761655450222,172659.72784115194,15999.410799137602,5241289.571501665
193,1612426101604,707542973,Pioneer Elementary,Elementary,SCHOOL,10.0,3_3C,Pacific Gas & Electric Company,67710.3189091,-122.070820000517,37.5723900002294,Bay Area,POINT (-182543.76937913604 -47532.32568570273),1122016.3251409042,1579398.0062575485,3.2082078483856584,71552.07796271838,5738.84845220739,2701414.3313984526
194,1612426115505,X,Tom Kitayama Elementary,Elementary,SCHOOL,,,,48171.001250344605,-122.050280000418,37.5986699998479,,POINT (-180669.41371199532 -44650.957462483086),826002.3919543225,1182346.177219482,3.4730172084955506,52012.44931479647,4516.003288157268,2008348.5691738045
195,1612426115554,89533739,Guy Jr. Emanuele Elementary,Elementary,SCHOOL,3.0,3_3C,Pacific Gas & Electric Company,83476.1651448,-122.015989999626,37.6004900000223,Bay Area,POINT (-177642.51386521294 -44513.511159142945),1390079.8481176167,1926112.46327554,3.3721896767675252,90011.82301812785,7588.4235092189065,3316192.3113931566
196,1612426118525,X,Delaine Eastin Elementary,Elementary,SCHOOL,,,,64048.77277195632,-122.074160000473,37.5674500000383,,POINT (-182850.29739033728 -48074.91056860937),1082313.4580687224,1541617.7659053807,3.210076063236052,70428.97733684066,5652.059357679665,2623931.223974103
197,1612590100065,X,Oakland Unity High,High,SCHOOL,,,,47896.57409468686,-122.185000000318,37.7736100000566,,POINT (-192096.33654336954 -24943.45588572137),995279.5056544893,1419950.4435079,3.3453885138493242,60831.28029948904,5087.606659916482,2415229.949162389
198,1612590100701,27209414,MetWest High,High,SCHOOL,2.0,3_3C,Pacific Gas & Electric Company,89378.1436121,-122.257860000166,37.7953099996724,Bay Area,POINT (-198446.13504969244 -22381.671887642704),1532595.8620216846,2107306.296875104,4.093574311062017,121703.10734274414,12455.017844867016,3639902.1588967885
199,1612590100792,X,Think College Now,Elementary,SCHOOL,,,,29131.196202856103,-122.230099999845,37.7796099996111,,POINT (-196046.71544178942 -24184.277032302693),569547.9488120051,834721.2504986405,3.5915363628089274,36352.27544202478,3264.0129780219495,1404269.1993106455
200,1612590102988,27946043,EnCompass Academy Elementary,Elementary,SCHOOL,7.0,3_3C,Pacific Gas & Electric Company,78663.44868489998,-122.186630000411,37.7530299998416,Bay Area,POINT (-192292.4392403244 -27227.3472893741),1525702.0147113511,2104652.394316477,3.2362242258796865,100389.5937985152,8122.080886924401,3630354.409027828
201,1612590106542,X,Community Day,Community Day,SCHOOL,,,,33157.82416644501,-122.178280000196,37.7879900000604,,POINT (-191468.6549266619 -23358.904606427066),626467.2552993255,872834.3366316548,4.144870137705741,40674.864501300566,4214.800780666701,1499301.5919309803
202,1612590106906,27233291,Bay Area Technology,K-12,SCHOOL,15.0,3_3C,Pacific Gas & Electric Company,114267.68376,-122.153679999814,37.7659700002511,Bay Area,POINT (-189361.34044664027 -25855.581606470514),1893233.4907516425,2580342.7499612393,3.6263352602189167,146561.0478645718,13286.987391148228,4473576.240712882
203,1612590108944,6320066,Lighthouse Community Charter High,High,SCHOOL,1.0,3_3C,Pacific Gas & Electric Company,59905.3395388,-122.196470000131,37.7360299996185,Bay Area,POINT (-193201.7824165125 -29096.65651135659),1214275.8286998137,1702233.945713559,3.243488555742145,75667.44563465202,6135.662348955868,2916509.7744133724
204,1612590109819,435326931,Aspire Berkley Maynard Academy,Elementary,SCHOOL,5.0,3_3C,Pacific Gas & Electric Company,37568.5886647,-122.283329999589,37.8457699998339,Bay Area,POINT (-200550.18465209633 -16720.19585663313),768605.6215106101,1112434.6325189588,3.328567796952647,47629.990266691006,3963.4912942718925,1881040.2540295688
205,1612590110189,25338967,McClymonds High,High,SCHOOL,3.0,3_3C,Pacific Gas & Electric Company,133909.002595,-122.279050000217,37.8181800004318,Bay Area,POINT (-200247.89435067616 -19795.44571006205),2193800.0848398497,2974110.719420598,3.873379754406155,179557.21114800495,17387.331660457836,5167910.804260448
206,1612590110239,27946497,Reach Academy,Elementary,SCHOOL,11.0,3_3C,Pacific Gas & Electric Company,93327.2905381,-122.161419999651,37.7471299998746,Bay Area,POINT (-190089.81206886604 -27933.918417869136),1628840.8342964298,2227282.1261877804,3.623359155873717,123206.74256541533,11160.556968494342,3856122.9604842104
207,1612590110247,27209468,Manzanita SEED Elementary,Elementary,SCHOOL,7.0,3_3C,Pacific Gas & Electric Company,78540.7844018,-122.224280000336,37.7919999995601,Bay Area,POINT (-195502.64064827486 -22819.327371595427),1502278.1622968907,2066696.5169058598,3.3782048771321085,100957.34715575153,8526.36506359698,3568974.6792027503
208,1612590110254,27204479,Sankofa United,Elementary,SCHOOL,7.0,3_3C,Pacific Gas & Electric Company,35639.687642,-122.263999999457,37.8471000001053,Bay Area,POINT (-198848.44878522475 -16613.120285837445),675340.0559008394,984643.7126956374,3.589945144845598,43586.77154481559,3911.8529721701243,1659983.7685964769
209,1612590110262,27946465,Rise Community,Elementary,SCHOOL,3.0,3_3C,Pacific Gas & Electric Company,62377.2117883,-122.178749999467,37.7517999996119,Bay Area,POINT (-191602.42436971553 -27380.00673372904),1144795.6641620134,1599661.4824362905,3.2543798466169687,71671.09261432588,5831.123984727011,2744457.1465983037
210,1612590111476,349621684,Achieve Academy,Elementary,SCHOOL,18.0,3_3C,Pacific Gas & Electric Company,56734.7295741,-122.226610000368,37.7820700002495,Bay Area,POINT (-195733.41114032606 -23918.097062630113),1052961.1174525581,1504557.3327319047,3.484566916545666,67012.28124445368,5837.719455666924,2557518.4501844626
211,1612590111856,22989041,American Indian Public High,High,SCHOOL,1.0,3_3C,Pacific Gas & Electric Company,12497.5839238,-122.248779999802,37.8113699996164,Bay Area,POINT (-197605.54238731775 -20615.814889969304),236790.49130136648,313780.3697969504,3.6123840996723677,15005.353367585903,1355.1274978758133,550570.861098317
212,1612590112763,27226271,United for Success Academy,Middle,SCHOOL,10.0,3_3C,Pacific Gas & Electric Company,97838.0979857,-122.216549999997,37.7849799996833,Bay Area,POINT (-194841.28118336096 -23615.422398525756),1714487.0827820527,2313233.066042994,5.318232232100878,126346.80775201217,16798.541635245107,4027720.1488250466
213,1612590112789,28004223,Elmhurst United Middle,Middle,SCHOOL,9.0,3_3C,Pacific Gas & Electric Company,87787.3987225,-122.166099999522,37.7458700001983,Bay Area,POINT (-190504.71801157697 -28064.55361096142),1544648.588830491,2124764.975070656,3.634987404740562,118827.97028725347,10798.454383126304,3669413.563901147
214,1612590112797,53293096,Coliseum College Prep Academy,K-12,SCHOOL,13.0,3_3C,Pacific Gas & Electric Company,154889.612492,-122.193050000311,37.761620000034,Bay Area,POINT (-192835.08076605794 -26259.637026045937),2528718.6438447502,3341364.2268917146,3.6844122905153407,203344.37895951374,18730.113226141035,5870082.870736465
215,1612590112813,27946184,Fred T. Korematsu Discovery Academy,Elementary,SCHOOL,15.0,3_3C,Pacific Gas & Electric Company,86079.5222639,-122.173969999801,37.7371299996764,Bay Area,POINT (-191219.34024094004 -29020.042368038557),1501583.5829130728,2087319.3964438692,3.445285892299427,104235.6654066359,8978.041687498153,3588902.9793569418
216,1612590114363,27204048,American Indian Public Charter II,Elementary,SCHOOL,3.0,3_3C,Pacific Gas & Electric Company,36320.7338518,-122.265429999491,37.80012000012,Bay Area,POINT (-199098.85906779917 -21831.234838323202),718656.6330880531,1046036.0379351659,3.481618308729701,44632.54610149446,3884.8372418046392,1764692.671023219
217,1612590114868,X,Oakland Charter High,High,SCHOOL,,,,65649.22206248442,-122.219619999752,37.7858899996479,,POINT (-195108.84534720704 -23507.97221649671),1166039.0648134775,1628373.1556231028,3.3460768122271034,77804.50084111298,6508.495903783808,2794412.2204365805
218,1612590115014,27203973,KIPP Bridge Academy,Elementary,SCHOOL,3.0,3_3C,Pacific Gas & Electric Company,45343.4568398,-122.279240000093,37.8102000000529,Bay Area,POINT (-200285.91717322115 -20681.89728062786),795696.4236380868,1100611.3168962654,4.75247947255355,47432.30160522708,5635.5259928702635,1896307.7405343521
219,1612590115204,53293096,Community United Elementary,Elementary,SCHOOL,13.0,3_3C,Pacific Gas & Electric Company,154889.612492,-122.191929999434,37.76101999967,Bay Area,POINT (-192738.1144002199 -26328.597570640035),2528718.6438447502,3341364.2268917146,3.691987028386974,203344.37895951374,18768.620235348244,5870082.870736465
220,1612590115238,X,ARISE High,High,SCHOOL,,,,19333.92281645044,-122.225100000571,37.7761000001837,,POINT (-195616.2126904986 -24584.696009159088),333110.0728142439,478209.7976556041,4.36452669875297,21450.499718169467,2340.5319680385924,811319.8704698479
221,1612590115386,X,Civicorps Corpsmember Academy,High,SCHOOL,,,,3505.161156549772,-122.285730000089,37.7988799999076,,POINT (-200886.69083310646 -21926.201242684387),41190.76936954413,64179.05483207591,5.455337212709978,3640.6927592024754,496.53016723302574,105369.82420162004
222,1612590115576,53293096,Futures Elementary,Elementary,SCHOOL,13.0,3_3C,Pacific Gas & Electric Company,154889.612492,-122.191670000493,37.7608500001579,Bay Area,POINT (-192715.68315473123 -26348.019525943324),2529027.4806310246,3341364.2268917146,3.6933360983495476,203344.37895951374,18775.47838019106,5870391.707522739
223,1612590115584,27209216,Global Family,Elementary,SCHOOL,6.0,3_3C,Pacific Gas & Electric Company,81333.94675119998,-122.213210000237,37.7796900003789,Bay Area,POINT (-194561.33540528646 -24210.19485611329),1449379.989962279,2030013.225237748,3.7422179134878695,96868.90353310035,9062.613651537413,3479393.215200027
224,1612590115592,27209216,Learning Without Limits,Elementary,SCHOOL,6.0,3_3C,Pacific Gas & Electric Company,81333.94675119998,-122.212059999505,37.7803640003868,Bay Area,POINT (-194458.46533665442 -24137.64945875667),1448824.5237122024,2028147.0778479767,3.743391115733013,96868.90353310035,9065.454821915153,3476971.601560179
225,1612590115600,27946155,East Oakland Pride Elementary,Elementary,SCHOOL,5.0,3_3C,Pacific Gas & Electric Company,74049.9382708,-122.174499999885,37.7599000004065,Bay Area,POINT (-191207.91979434516 -26488.380157507025),1434457.1460065797,1985895.1215268355,3.2721824602296947,94415.90219438192,7723.651478180473,3420352.267533415
226,1612590115618,27293436,Greenleaf Elementary,Elementary,SCHOOL,6.0,3_3C,Pacific Gas & Electric Company,35976.2621285,-122.194679999523,37.7645299998839,Bay Area,POINT (-192970.95751229042 -25932.911323550157),681203.3303205298,990474.7544451631,3.494241338187643,44600.03253201234,3896.0819339467803,1671678.0847656927
227,1612590115626,27226749,West Oakland Middle,Middle,SCHOOL,3.0,3_3C,Pacific Gas & Electric Company,91395.2619324,-122.282640000127,37.8084899996384,Bay Area,POINT (-200589.3361925176 -20864.74596102815),1522461.782101763,2095637.8227018246,4.446656092480175,122432.92207829318,13610.42747198982,3618099.6048035873
228,1612590115667,28005196,Oakland International High,Alternative Schools of Choice,SCHOOL,5.0,3_3C,Pacific Gas & Electric Company,84580.73330449998,-122.2604699995,37.8336099996484,Bay Area,POINT (-198574.08292036358 -18119.733160047326),1473685.7049944191,2038653.2422067188,3.847585231268181,114385.16625416013,11002.666908891551,3512338.947201138
229,1612590118224,419357602,Aspire Golden State College Preparatory Academy,K-12,SCHOOL,5.0,3_3C,Pacific Gas & Electric Company,181571.225341,-122.198850000066,37.759689999684,Bay Area,POINT (-193350.18778594516 -26462.312717763707),3000812.260235007,3909182.363977576,3.7894854889283547,247663.92498002443,23462.97124607108,6909994.6242125835
230,1612590118653,25338985,Ralph J. Bunche High,Continuation,SCHOOL,3.0,3_3C,Pacific Gas & Electric Company,48218.7511326,-122.28673000033,37.8133100000958,Bay Area,POINT (-200935.911621842 -20320.41395420162),904784.9667900413,1282602.869678869,3.986081821841977,57774.618206338455,5757.358884903656,2187387.8364689103
231,1612590119859,X,Gateway to College at Laney College,Alternative Schools of Choice,SCHOOL,,,,39591.14820224726,-122.263189999987,37.7965400001813,,POINT (-198911.44655140082 -22233.801466014702),748568.2149008776,1053533.3553533992,3.737896614467496,46730.29773563155,4366.825542476882,1802101.5702542767
232,1612590120188,404588378,Aspire ERES Academy,Elementary,SCHOOL,1.0,3_3C,Pacific Gas & Electric Company,18672.6724019,-122.211780000374,37.7755899999755,Bay Area,POINT (-194446.224426588 -24668.788424077444),264545.74751156743,387555.1296873161,4.679306698003559,19112.068304890057,2235.7807307943394,652100.8771988836
233,1612590121210,28004607,Infant and Preschool Program,Preschool,SCHOOL,8.0,3_3C,Pacific Gas & Electric Company,36146.3864204,-122.177287101876,37.7751633547063,Bay Area,POINT (-191414.09922027873 -24786.427513525356),661911.6202595787,961767.297204563,3.7862797918861335,47168.045176268715,4464.785406841961,1623678.9174641417
234,1612590121228,27225924,Young Adult Program,Special Education,SCHOOL,3.0,3_3C,Pacific Gas & Electric Company,30791.158666,-122.289818172771,37.8074935358265,Bay Area,POINT (-201222.94963615297 -20960.269493625034),458897.80263346224,650463.7022681915,3.9885159668651973,33781.29724504535,3368.4310860820674,1109361.5049016536
235,1612590121376,27225924,Home and Hospital Program,K-12,SCHOOL,3.0,3_3C,Pacific Gas & Electric Company,30791.158666,-122.289809999757,37.8074900000543,Bay Area,POINT (-201222.24073790087 -20960.679792740382),458897.80263346224,650463.7022681915,3.9885159668651973,33781.29724504535,3368.4310860820674,1109361.5049016536
236,1612590123711,407650689,Vincent Academy,Elementary,SCHOOL,5.0,3_3C,Pacific Gas & Electric Company,38636.365552,-122.282290000079,37.817909999787,Bay Area,POINT (-200533.36599187087 -19818.6008935743),706120.7850885701,1063689.6290022286,3.4808679593566056,44954.76578010249,3912.0400956084877,1769810.4140907987
237,1612590125161,27227736,Castlemont High,High,SCHOOL,23.0,3_3C,Pacific Gas & Electric Company,190476.24798,-122.163690000416,37.7588400003469,Bay Area,POINT (-190259.80132842975 -26627.943084352184),3117257.430627652,3951221.2118593794,3.6936516426304173,257295.16075717143,23758.96732928959,7068478.642487031
238,1612590125716,25338999,Fremont High,High,SCHOOL,8.0,3_3C,Pacific Gas & Electric Company,109638.137777,-122.20971999999,37.7743999996003,Bay Area,POINT (-194268.15715745362 -24805.26551493723),1871917.3666959233,2547059.27766151,3.756203930237604,146377.08354724562,13745.554412922054,4418976.644357434
239,1612590126748,27227736,LPS Oakland R & D Campus,High,SCHOOL,23.0,3_3C,Pacific Gas & Electric Company,190476.24798,-122.16345000008,37.7602310003374,Bay Area,POINT (-190235.16316904812 -26473.83267826354),3117126.1800539363,3949455.2056771778,3.69210131050261,257270.22669378223,23746.69352823542,7066581.385731114
240,1612590128413,X,Aspire College Academy,Elementary,SCHOOL,,,,46462.950397211054,-122.170540000175,37.7613899996368,,POINT (-190855.8214005723 -26330.768522002734),969837.8678875117,1386916.432007968,3.252065848708066,59271.497820029595,4818.870346557321,2356754.29989548
241,1612590129635,X,Downtown Charter Academy,Middle,SCHOOL,,,,40528.06883869578,-122.241089999544,37.7804100000039,,POINT (-197010.98338501973 -24072.577125166077),524055.7580518037,849388.3162687152,3.9387737577047126,45231.075714228864,4453.874351398989,1373444.0743205189
242,1612590129932,27946394,East Bay Innovation Academy,K-12,SCHOOL,2.0,3_3C,Pacific Gas & Electric Company,38249.6238068,-122.140669999682,37.745419999975,Bay Area,POINT (-188268.69226156294 -28165.38737078756),657971.199526725,985723.7065055807,4.0846693536133385,43806.75431249027,4473.402670537449,1643694.9060323057
243,1612590130146,27233291,Rudsdale Continuation,Continuation,SCHOOL,15.0,3_3C,Pacific Gas & Electric Company,114267.68376,-122.153919999674,37.7657299996223,Bay Area,POINT (-189383.05439873692 -25881.775136117823),1893233.4907516425,2580342.7499612393,3.6175943386355573,146561.0478645718,13254.960425484247,4473576.240712882
244,1612590130179,27233174,Street Academy (Alternative),Alternative Schools of Choice,SCHOOL,1.0,3_3C,Pacific Gas & Electric Company,7504.66339565,-122.265649999558,37.8181600002846,Bay Area,POINT (-199070.27858637116 -19825.900174755603),144227.46859226923,204625.57798945205,3.707746469129112,9573.398715252091,887.393382101028,348853.0465817213
245,1612590130575,27226271,LIFE Academy,K-12,SCHOOL,10.0,3_3C,Pacific Gas & Electric Company,97838.0979857,-122.216549999997,37.7849799996833,Bay Area,POINT (-194841.28118336096 -23615.422398525756),1714487.0827820527,2313233.066042994,5.318232232100878,126346.80775201217,16798.541635245107,4027720.1488250466
246,1612590130617,54123022,"Oakland Military Institute, College Preparatory Academy",K-12,SCHOOL,4.0,3_3C,Pacific Gas & Electric Company,54445.9128168,-122.272740000413,37.829540000285,Bay Area,POINT (-199663.06564797068 -18546.27086294396),1035381.5001417367,1468839.7215343574,3.72281329913098,71739.66698555184,6676.834658226003,2504221.221676094
247,1612590130633,6320066,Lighthouse Community Charter,Elementary,SCHOOL,1.0,3_3C,Pacific Gas & Electric Company,59905.3395388,-122.196470000131,37.7360299996185,Bay Area,POINT (-193201.7824165125 -29096.65651135659),1214275.8286998137,1702233.945713559,3.243488555742145,75667.44563465202,6135.662348955868,2916509.7744133724
248,1612590130666,X,Aspire Lionel Wilson College Preparatory Academy,K-12,SCHOOL,,,,38488.33858290204,-122.179889999499,37.7295100000488,,POINT (-191759.67356432983 -29854.943864203524),659644.9098687018,1009815.8452070685,3.836634411389372,45140.551004717294,4329.694783344386,1669460.7550757704
249,1612590130732,X,Aspire Triumph Technology Academy,Elementary,SCHOOL,,,,55793.101878123394,-122.182140000225,37.7736400000149,,POINT (-191844.75163171164 -24945.915428001434),1070092.7159841387,1514202.552483188,3.326804310406666,68458.84121162047,5693.729200706612,2584295.2684673266
250,1612590132514,27225724,Francophone Charter School of Oakland,Elementary,SCHOOL,7.0,3_3C,Pacific Gas & Electric Company,19477.6402294,-122.156999999868,37.7514000002322,Bay Area,POINT (-189690.17955440722 -27468.2178687267),386128.4625134879,578881.5545436285,3.4572035270841956,23722.821294403606,2050.365536285005,965010.0170571164
251,1612590132555,X,Conservatory of Vocal/Instrumental Arts High,High,SCHOOL,,,,48131.560741344976,-122.165359999967,37.7893500003377,,POINT (-190329.233077648 -23233.7844462567),964586.7787299536,1375355.1288185914,3.4774180820370924,60746.07770703033,5280.98772578144,2339941.907548545
252,1612590132688,399099029,Dewey Academy,Continuation,SCHOOL,3.0,3_3C,Pacific Gas & Electric Company,20173.7305908,-122.258390000389,37.7969300002666,Bay Area,POINT (-198488.43942961757 -22200.52313377522),288715.24510844005,415224.04024659033,4.396174583226931,22555.796232854762,2478.980452583047,703939.2853550303
253,1612590134015,X,Lodestar: A Lighthouse Community Charter Public,K-12,SCHOOL,,,,104153.50085547172,-122.17775999962,37.7340300001181,,POINT (-191560.71037789888 -29356.912756000645),1759349.8636412215,2392070.6592431557,3.6930028806821156,130419.78621411341,12041.016154666662,4151420.5228843773
254,1612590135905,25340322,Oakland High,High,SCHOOL,9.0,3_3C,Pacific Gas & Electric Company,137533.19503,-122.236879999503,37.8044800002837,Bay Area,POINT (-196577.66907511523 -21406.287410957273),2250808.789688726,3008488.215391531,3.9500526373733584,184883.12374235425,18257.451763607787,5259297.005080257
255,1612590136051,22942715,Oakland Technical High,High,SCHOOL,12.0,3_3C,Pacific Gas & Electric Company,173313.741919,-122.254609999695,37.8324800001234,Bay Area,POINT (-198062.16362732407 -18257.579020464327),2893053.4259293294,3784683.892072355,3.737514661287773,234363.9727814273,21898.469608705826,6677737.318001684
256,1612590137943,27232917,Skyline High,High,SCHOOL,47.0,3_3C,Pacific Gas & Electric Company,239563.951474,-122.160619999651,37.7985199996482,Bay Area,POINT (-189889.2537873621 -22224.16168553848),3664503.226750098,4640763.438064036,3.775228676961277,312615.3744136896,29504.863158638695,8305266.664814134
257,1612593030772,230391604,Oakland School for the Arts,K-12,SCHOOL,1.0,3_3C,Pacific Gas & Electric Company,54516.6238083,-122.270639999937,37.8081050002787,Bay Area,POINT (-199535.5971444283 -20932.86590342596),1096740.0769579709,1551700.353777148,3.4591329318481,70716.3579609122,6115.4320660737485,2648440.4307351187
258,1612596001630,27293332,Allendale Elementary,Elementary,SCHOOL,3.0,3_3C,Pacific Gas & Electric Company,41616.6076113,-122.204709999817,37.7884800002686,Bay Area,POINT (-193791.19018916882 -23250.72312296601),809514.4375193896,1173991.1752413115,3.4472203709425253,53095.32537623887,4575.782180969805,1983505.6127607012
259,1612596001648,22961553,Chabot Elementary,Elementary,SCHOOL,8.0,3_3C,Pacific Gas & Electric Company,46807.6721807,-122.243199999575,37.8503800003654,Bay Area,POINT (-197012.4956085053 -16292.039882523939),947547.4845052167,1363751.782997918,3.2814852203378213,57756.2904885135,4738.160340489873,2311299.267503135
260,1612596001655,27209009,Bella Vista Elementary,Elementary,SCHOOL,6.0,3_3C,Pacific Gas & Electric Company,30044.5157522,-122.237419999993,37.8002099998268,Bay Area,POINT (-196636.33769626153 -21879.716209080536),602140.4934112118,897171.3343811877,3.3200076280515938,36495.995783249884,3029.1746098432104,1499311.8277923996
261,1612596001663,27946100,Brookfield Elementary,Elementary,SCHOOL,5.0,3_3C,Pacific Gas & Electric Company,79492.5567291,-122.189480000471,37.7346600000035,Bay Area,POINT (-192590.29276190733 -29263.141804084647),1525747.1567728424,2105800.7966998224,3.2454739434076423,99735.05953418187,8092.18842405993,3631547.9534726646
262,1612596001689,27293403,Burckhalter Elementary,Elementary,SCHOOL,5.0,3_3C,Pacific Gas & Electric Company,26593.905992,-122.166990000481,37.7752300002156,Bay Area,POINT (-190508.41994060486 -24799.770454648882),550611.1767446802,815830.6633496372,3.344068467098128,33522.27312855044,2802.5194128659114,1366441.8400943172
263,1612596001697,27293409,Carl B. Munck Elementary,Elementary,SCHOOL,5.0,3_3C,Pacific Gas & Electric Company,46504.6026891,-122.173879999481,37.7949800004524,Bay Area,POINT (-191063.9769818534 -22590.93582553137),965671.7075853145,1384164.0607776116,3.216782735502699,59181.70608138302,4759.367259504699,2349835.7683629263
264,1612596001713,27946379,Howard Elementary,Elementary,SCHOOL,8.0,3_3C,Pacific Gas & Electric Company,46093.3563552,-122.152689999666,37.7622399998667,Bay Area,POINT (-189283.6845752269 -26272.10336821759),956208.7395814385,1366291.402695067,3.24398250736583,57804.5348977379,4687.922501366986,2322500.1422765055
265,1612596001739,27209058,Cleveland Elementary,Elementary,SCHOOL,4.0,3_3C,Pacific Gas & Electric Company,25692.5718992,-122.243970000267,37.8039500002737,Bay Area,POINT (-197202.292227571 -21450.45877444232),547177.8062453769,803446.3869231952,3.3760838935374116,32400.295861077462,2734.652925060762,1350624.1931685722
266,1612596001754,27209089,Crocker Highlands Elementary,Elementary,SCHOOL,2.0,3_3C,Pacific Gas & Electric Company,27356.0317871,-122.227249999605,37.8109600003131,Bay Area,POINT (-195714.2449988014 -20706.05974633107),516658.07684327447,770090.4189580677,3.9179836037843305,35033.88882768196,3431.555050091524,1286748.4958013422
267,1612596001812,27203778,Emerson Elementary,Elementary,SCHOOL,9.0,3_3C,Pacific Gas & Electric Company,42278.0623031,-122.258269999534,37.8342099996116,Bay Area,POINT (-198379.18486490357 -18057.65975658316),900771.5698761896,1296348.8926081539,3.251106974763188,54536.423430684794,4432.593664853447,2197120.4624843434
268,1612596001820,27209094,Franklin Elementary,Elementary,SCHOOL,3.0,3_3C,Pacific Gas & Electric Company,72243.9205203,-122.248739999661,37.7934400002821,Bay Area,POINT (-197649.29902833689 -22608.553976340685),1403417.004873775,1943918.5731373618,3.323875159937508,93985.07908545718,7809.866744422832,3347335.5780111365
269,1612596001838,27293425,Fruitvale Elementary,Elementary,SCHOOL,9.0,3_3C,Pacific Gas & Electric Company,41872.5734901,-122.21378000028,37.7957599998557,Bay Area,POINT (-194569.74677486814 -22423.065553791355),864318.2550679325,1241052.8515969606,3.3220416781184707,54069.91869548758,4490.5630859721705,2105371.106664893
270,1612596001846,27209109,Garfield Elementary,Elementary,SCHOOL,2.0,3_3C,Pacific Gas & Electric Company,58236.8085587,-122.235699999786,37.7864199999101,Bay Area,POINT (-196521.28314744114 -23415.844070971943),1171780.2409112896,1652146.119717489,3.2678069206729328,72855.81444123245,5951.9683660580595,2823926.3606287786
271,1612596001853,27209128,Glenview Elementary,Elementary,SCHOOL,1.0,3_3C,Pacific Gas & Electric Company,19517.2080189,-122.219289999638,37.8056200002534,Bay Area,POINT (-195028.49317136366 -21315.936549670063),288114.95265811984,385808.03698799975,4.845331097351355,21820.523906947263,2643.1915761707564,673922.9896461195
272,1612596001879,27946364,Grass Valley Elementary,Elementary,SCHOOL,14.0,3_3C,Pacific Gas & Electric Company,41782.2279928,-122.125500000067,37.7527699996574,Bay Area,POINT (-186915.80995197356 -27378.551414188463),851385.6084715972,1224757.4689297816,3.3911142711898856,52826.68762141333,4478.53335731662,2076143.0774013787
273,1612596001903,27946465,New Highland Academy,Elementary,SCHOOL,3.0,3_3C,Pacific Gas & Electric Company,62377.2117883,-122.178999999795,37.7517100001887,Bay Area,POINT (-191624.6457187841 -27389.503505614586),1144795.6641620134,1599661.4824362905,3.2543798466169687,71671.09261432588,5831.123984727011,2744457.1465983037
274,1612596001911,22775119,Hillcrest Elementary,Elementary,SCHOOL,2.0,3_3C,Pacific Gas & Electric Company,26137.9456082,-122.232710000241,37.8408199995484,Bay Area,POINT (-196115.98763829784 -17376.25534367049),568216.5597683705,846683.8755084526,3.3234712842796927,32975.13107133449,2739.7975302734803,1414900.4352768231
275,1612596001929,27293449,Horace Mann Elementary,Elementary,SCHOOL,3.0,3_3C,Pacific Gas & Electric Company,39292.1319959,-122.202699999522,37.7738999999119,Bay Area,POINT (-193652.12010255843 -24875.201757738832),755397.5480346216,1102043.4432529742,3.4196502365531005,46532.640370068664,3978.1338662236412,1857440.9912875958
276,1612596001945,27209305,Joaquin Miller Elementary,Elementary,SCHOOL,6.0,3_3C,Pacific Gas & Electric Company,41332.6853167,-122.202399999922,37.8189699998893,Bay Area,POINT (-193509.3596340211 -19866.890608696267),857414.0688274181,1216722.7573471135,3.3676509498275404,52899.58491458327,4453.683434576974,2074136.8261745316
277,1612596001994,27293459,Laurel Elementary,Elementary,SCHOOL,5.0,3_3C,Pacific Gas & Electric Company,44581.9439174,-122.196510000537,37.7928900001951,Bay Area,POINT (-193058.87194212698 -22777.347760431003),859597.8863114545,1238527.919005275,3.418931551252282,53723.85344719407,4591.9544401366375,2098125.8053167295
278,1612596002018,27204048,Lincoln Elementary,Elementary,SCHOOL,3.0,3_3C,Pacific Gas & Electric Company,36320.7338518,-122.26734000018,37.7999500000946,Bay Area,POINT (-199267.21347881397 -21846.11326731555),737529.8701953035,1074223.916771204,3.4351447021781105,45584.13592367061,3914.7025755390996,1811753.7869665073
279,1612596002042,27209468,Manzanita Community,Elementary,SCHOOL,7.0,3_3C,Pacific Gas & Electric Company,78540.7844018,-122.224990000425,37.7921799997795,Bay Area,POINT (-195564.5925014253 -22797.85791336),1502278.1622968907,2066696.5169058598,3.3787216545080443,100957.34715575153,8527.669375420595,3568974.6792027503
280,1612596002059,27293464,Markham Elementary,Elementary,SCHOOL,4.0,3_3C,Pacific Gas & Electric Company,41362.95952,-122.178870000057,37.7655499999444,Bay Area,POINT (-191577.85465819997 -25851.629494012333),803365.4058509995,1164542.6028584058,3.506292369823257,52629.27680964443,4613.340792674308,1967908.0087094053
281,1612596002075,27293365,Bridges Academy,Elementary,SCHOOL,7.0,3_3C,Pacific Gas & Electric Company,41725.4623869,-122.207160000412,37.7674400001953,Bay Area,POINT (-194061.045529039 -25584.01929417206),745560.5167601022,1102581.5691180937,4.140207771019297,52625.09548522254,5446.970731963772,1848142.085878196
282,1612596002083,22916692,Montclair Elementary,Elementary,SCHOOL,6.0,3_3C,Pacific Gas & Electric Company,48258.0931596,-122.21303999988,37.8309599999087,Bay Area,POINT (-194413.35915279048 -18512.586936921347),983065.4370346224,1390865.157347242,3.3294719475592283,60635.66802078385,5047.1188924178505,2373930.5943818646
283,1612596002091,27946480,Parker Elementary,Elementary,SCHOOL,6.0,3_3C,Pacific Gas & Electric Company,31057.9488729,-122.165690000305,37.765480000083,Bay Area,POINT (-190418.85667343743 -25885.973328196444),625769.180013859,917302.7252582931,3.429211219268332,39237.583014561256,3363.84899726265,1543071.905272152
284,1612596002109,27204180,Peralta Elementary,Elementary,SCHOOL,7.0,3_3C,Pacific Gas & Electric Company,25759.447015,-122.258739999954,37.8495399996667,Bay Area,POINT (-198379.88523862188 -16352.974938725587),554689.0307989197,813016.8387494256,3.4504504019967968,32803.49004275198,2829.6703851227876,1367705.8695483455
285,1612596002117,27204250,Piedmont Avenue Elementary,Elementary,SCHOOL,4.0,3_3C,Pacific Gas & Electric Company,43530.0071867,-122.248599999653,37.8287500002285,Bay Area,POINT (-197543.90188676724 -18684.65805495018),904159.8398179464,1293239.08009718,3.274153140477075,54169.67064243965,4433.994931313815,2197398.9199151266
286,1612596002125,27204443,Prescott,Elementary,SCHOOL,10.0,3_3C,Pacific Gas & Electric Company,45189.6191037,-122.297729999603,37.8080699998079,Bay Area,POINT (-201916.82871951346 -20879.37625573529),791280.746493663,1095784.3404100065,3.769190085055453,47446.30264301219,4470.853337364547,1887065.0869036694
287,1612596002141,27293487,Redwood Heights Elementary,Elementary,SCHOOL,5.0,3_3C,Pacific Gas & Electric Company,34408.2506714,-122.186160000097,37.7975399997197,Bay Area,POINT (-192137.01083597622 -22281.596493673045),700670.882393891,1035325.1949312594,3.4660057736204726,42499.24325232882,3682.565562176815,1735996.0773251504
288,1612596002174,27293521,Sequoia Elementary,Elementary,SCHOOL,2.0,3_3C,Pacific Gas & Electric Company,35105.4812468,-122.211049999437,37.8023299997579,Bay Area,POINT (-194312.71178657652 -21698.50162986247),712608.2440855493,1049336.8620724154,3.3406526057338293,43387.187853820455,3623.5380539832113,1761945.1061579646
289,1612596002182,28004810,Madison Park Academy TK-5,Elementary,SCHOOL,8.0,3_3C,Pacific Gas & Electric Company,54409.514151,-122.177300000216,37.7276099996738,Bay Area,POINT (-191536.62530811105 -30071.34195913514),1115210.335710736,1577790.4257498935,3.2894788413796636,69870.99364187526,5745.978880278042,2693000.7614606293
290,1612596002190,27946184,Esperanza Elementary,Elementary,SCHOOL,15.0,3_3C,Pacific Gas & Electric Company,86079.5222639,-122.173599999473,37.7368000002777,Bay Area,POINT (-191187.62751902762 -29057.464079466183),1502257.1727570614,2086861.8950639076,3.445285892299427,104238.94806970828,8978.324430317462,3589119.067820969
291,1612596002216,23810205,Thornhill Elementary,Elementary,SCHOOL,8.0,3_3C,Pacific Gas & Electric Company,34810.0687794,-122.211149999803,37.8357299997481,Bay Area,POINT (-194234.9150007193 -17986.342100558337),722220.6305786375,1056382.780853436,3.3043526376498566,43220.522192271725,3570.3961626659307,1778603.4114320735
292,1612596002273,27946043,ACORN Woodland Elementary,Elementary,SCHOOL,7.0,3_3C,Pacific Gas & Electric Company,78663.44868489998,-122.186280000359,37.7530399995631,Bay Area,POINT (-192261.62621222227 -27226.946096161846),1525702.0147113511,2104652.394316477,3.2362242258796865,100389.5937985152,8122.080886924401,3630354.409027828
293,1612596056998,28004379,Bret Harte Middle,Middle,SCHOOL,9.0,3_3C,Pacific Gas & Electric Company,88528.1227906,-122.206819999725,37.7997099996646,Bay Area,POINT (-193947.64957444463 -21998.34424741706),1537617.2590869553,2102098.1164185125,3.8283484633312805,118520.66926347838,11343.46055119581,3639715.375505468
294,1612596057004,22958176,Claremont Middle,Middle,SCHOOL,8.0,3_3C,Pacific Gas & Electric Company,63147.4429941,-122.250919999704,37.8457799997989,Bay Area,POINT (-197702.82606950626 -16787.185391010717),1141403.9352753093,1607522.384349296,3.662452410373874,83052.4536638421,7604.391477715074,2748926.3196246056
295,1612596057020,28004644,Frick United Academy of Language,Middle,SCHOOL,5.0,3_3C,Pacific Gas & Electric Company,90550.2453033,-122.184469999946,37.7718000002747,Bay Area,POINT (-192054.36406457284 -25145.687983680982),1551970.6072423887,2135857.492934389,3.7307204334803092,123518.30379881401,11520.306497276599,3687828.1001767777
296,1612596057046,27203843,Hoover Elementary,Elementary,SCHOOL,5.0,3_3C,Pacific Gas & Electric Company,31635.9098215,-122.274699999679,37.8233600002097,Bay Area,POINT (-199851.77709752732 -19228.95151169598),610036.4568453,886581.9081680658,3.764398066711376,38476.32393700341,3621.004986065407,1496618.3650133659
297,1612596057061,28004451,Edna Brewer Middle,Middle,SCHOOL,3.0,3_3C,Pacific Gas & Electric Company,76403.340943,-122.228799999966,37.8035400003111,Bay Area,POINT (-195869.87193735523 -21527.48554829927),1320535.6218741622,1836592.1656404438,3.7651934877219233,98286.65006204369,9251.706368590261,3157127.787514606
298,1612596057079,27226181,Montera Middle,Middle,SCHOOL,12.0,3_3C,Pacific Gas & Electric Company,109966.57605,-122.202109999928,37.8203900003023,Bay Area,POINT (-193480.20638223956 -19709.668711141683),1892604.954673163,2567568.0353480643,3.925931492296854,149974.68769627422,14719.75873685471,4460172.990021227
299,1612596057087,23074364,Roosevelt Middle,Middle,SCHOOL,4.0,3_3C,Pacific Gas & Electric Company,84751.698028,-122.237149999731,37.7899099997223,Bay Area,POINT (-196639.61862589378 -23024.973029977176),1519049.9514165884,2094559.535169656,3.739481285643206,116071.87311775287,10851.21493283474,3613609.4865862443
300,1612596057095,27227246,Westlake Middle,Middle,SCHOOL,4.0,3_3C,Pacific Gas & Electric Company,72589.04520759998,-122.260779999918,37.8145499998966,Bay Area,POINT (-198651.842709364 -20237.3166277227),1306585.1752315522,1813662.9088745073,3.878038793858365,96123.23821936005,9319.241170149184,3120248.0841060597
301,1612596066450,28004809,Madison Park Academy 6-12,K-12,SCHOOL,10.0,3_3C,Pacific Gas & Electric Company,92819.0665865,-122.178840000488,37.7272970001495,Bay Area,POINT (-191672.93559265113 -30103.01405461086),1581423.2406644006,2185532.446884093,3.7366254653757833,124942.56345549367,11671.589107928185,3766955.6875484935
302,1612596072235,27204114,"Martin Luther King, Jr. Elementary",Elementary,SCHOOL,2.0,3_3C,Pacific Gas & Electric Company,69947.4187073,-122.282799999713,37.8059800000077,Bay Area,POINT (-200610.11747865222 -21143.35445888294),1348683.5129718734,1869115.613226102,3.342519411483269,88018.13929560505,7355.058478954956,3217799.126197975
303,1612596096523,27209414,La Escuelita Elementary,Elementary,SCHOOL,2.0,3_3C,Pacific Gas & Electric Company,89378.1436121,-122.258470000149,37.7959919996784,Bay Area,POINT (-198497.95602006695 -22304.6002707188),1533974.7903573778,2107996.864339591,4.139230261732818,121755.94190964157,12599.396982454286,3641971.654696969
304,1612596111660,404588378,Oakland Charter Academy,Middle,SCHOOL,1.0,3_3C,Pacific Gas & Electric Company,18672.6724019,-122.212999999582,37.77513000026,Bay Area,POINT (-194554.70097929033 -24717.4070807253),263154.089007357,383570.40472318116,4.6891790961365025,19102.534132678684,2239.380093454773,646724.4937305382
305,1612596113807,27204048,American Indian Public Charter,Middle,SCHOOL,3.0,3_3C,Pacific Gas & Electric Company,36320.7338518,-122.265489999951,37.8000999996141,Bay Area,POINT (-199104.18665564212 -21833.33153199544),718656.6330880531,1046236.6394360812,3.481618308729701,44632.54610149446,3884.8372418046392,1764893.2725241343
306,1612596114011,27233291,"Independent Study, Sojourner Truth",Alternative Schools of Choice,SCHOOL,15.0,3_3C,Pacific Gas & Electric Company,114267.68376,-122.153679999814,37.7659700002511,Bay Area,POINT (-189361.34044664027 -25855.581606470514),1893233.4907516425,2580342.7499612393,3.6263352602189167,146561.0478645718,13286.987391148228,4473576.240712882
307,1612596117568,X,Aspire Monarch Academy,Elementary,SCHOOL,,,,25117.646528480527,-122.167800000533,37.7426799998002,,POINT (-190662.37958005062 -28415.6627955148),396361.4833653114,577471.8033785976,4.155474056185352,29130.126758131748,3026.23714992018,973833.286743909
308,1612596117972,687735718,North Oakland Community Charter,Elementary,SCHOOL,1.0,3_3C,Pacific Gas & Electric Company,20476.2997902,-122.276469999725,37.833199999778,Bay Area,POINT (-199981.0609567878 -18131.6532367412),321006.3280072818,453941.382205848,4.993143290960586,23689.94037292388,2957.18167090803,774947.7102131299
309,1612596118608,27208998,ASCEND,Elementary,SCHOOL,1.0,3_3C,Pacific Gas & Electric Company,34856.635202,-122.220659999716,37.7732799996015,Bay Area,POINT (-195233.1182198618 -24907.255472006276),604071.6485154656,882750.9502419174,3.6892401810928366,38783.446791504415,3577.0362566123536,1486822.598757383
310,1612596118616,X,International Community,Elementary,SCHOOL,,,,47174.53865891682,-122.230560000154,37.7797800001762,,POINT (-196086.71954635967 -24164.432174410205),951338.8609082409,1368010.8112781644,3.664582330015536,57507.00001280253,5268.478402477984,2319349.6721864054
311,1612596118640,27293472,Melrose Leadership Academy,Elementary,SCHOOL,3.0,3_3C,Pacific Gas & Electric Company,27980.934367,-122.197980000083,37.7804099999674,Bay Area,POINT (-193220.27082813234 -24161.337340047583),508568.8426609961,757378.1420367272,3.5145181098231277,33301.84373824747,2925.9983227142666,1265946.9846977233
312,1612596118657,349622064,Urban Promise Academy,Middle,SCHOOL,3.0,3_3C,Pacific Gas & Electric Company,55486.5037044,-122.224799999867,37.7821099998874,Bay Area,POINT (-195574.15511112887 -23917.388595496304),1053028.5706537894,1495716.771102863,3.4340570596781204,67871.91813518484,5826.9009906506735,2548745.341756652
313,1612750130286,70215040,Millennium High Alternative,Continuation,SCHOOL,3.0,3_3C,Pacific Gas & Electric Company,44747.4673429,-122.232470000391,37.8234699998555,Bay Area,POINT (-196140.31363095425 -19304.958084842656),784141.541974535,1131932.1722512865,3.3538603814034227,46707.039310006774,3916.2222168620997,1916073.7142258214
314,1612750136515,70215040,Piedmont High,High,SCHOOL,3.0,3_3C,Pacific Gas & Electric Company,44747.4673429,-122.232519999481,37.8234099996631,Bay Area,POINT (-196144.86462122592 -19311.522767391056),784141.541974535,1131932.1722512865,3.3538603814034227,46707.039310006774,3916.2222168620997,1916073.7142258214
315,1612756002281,70267340,Beach Elementary,Elementary,SCHOOL,2.0,3_3C,Pacific Gas & Electric Company,35020.29546,-122.246190000343,37.8239499995934,Bay Area,POINT (-197344.7667185413 -19223.129142732825),637068.2624937664,939682.9058778768,3.2358366285686464,37590.37157892166,3040.907530914513,1576751.1683716432
316,1612756002299,70215040,Havens Elementary,Elementary,SCHOOL,3.0,3_3C,Pacific Gas & Electric Company,44747.4673429,-122.233129999605,37.825389999576,Bay Area,POINT (-196193.28768029285 -19090.211214253213),784881.6912300054,1132496.7646327359,3.3137138362372833,46704.64646561912,3869.14583024232,1917378.4558627412
