,id_site,id_site_osm,name_site,type_site,cat_site,cnt_bldgs,cz_cec_doe,util,SQFT_ROOF,LON,LAT,REGION,geometry
0,1.10E+12,36978185,Envision Academy for Arts & Technology,High,SCHOOL,1,3_3C,Pacific Gas & Electric Company,15394.08554,-122.26838,37.80468,Bay Area,POINT (-199346.05743158385 -21318.258575216867)
1,1.10E+12,27232624,Community School for Creative Education,Elementary,SCHOOL,1,3_3C,Pacific Gas & Electric Company,20434.098,-122.23863,37.78464,Bay Area,POINT (-196783.57155970414 -23607.585237703286)
2,1.10E+12,685050169,Yu Ming Charter,Elementary,SCHOOL,3,3_3C,Pacific Gas & Electric Company,10470.75802,-122.28362,37.84737,Bay Area,POINT (-200571.37827920605 -16541.767099541612)
3,1.10E+12,27293554,Urban Montessori Charter,Elementary,SCHOOL,17,3_3C,Pacific Gas & Electric Company,67409.5045,-122.1879784,37.78676142,Bay Area,POINT (-192324.52233995654 -23475.806643507443)
4,1.10E+12,407832146,Epic Charter,Middle,SCHOOL,3,3_3C,Pacific Gas & Electric Company,32331.05075,-122.229616,37.777113,Bay Area,POINT (-196010.68375786635 -24462.784139202442)
5,1.10E+12,X,Alameda County Juvenile Hall/Court,Juvenile Court,SCHOOL,,,,17535.37559,-122.11822,37.71595,,POINT (-186366.86226969227 -31485.00791474292)
6,1.10E+12,X,Alameda County Community,County Community,SCHOOL,,,,44303.25569,-122.09794,37.65835,,POINT (-184723.71732887434 -37926.296683136374)
7,1.10E+12,27232740,Oakland Unity Middle,Middle,SCHOOL,7,3_3C,Pacific Gas & Electric Company,24663.39452,-122.190759,37.75908002,Bay Area,POINT (-192640.10565329238 -26546.581439819653)
8,1.10E+12,X,Connecting Waters Charter - East Bay,K-12,SCHOOL,,,,23644.69996,-122.02511,37.60378,,POINT (-178438.59575228865 -44130.725315084215)
9,1.10E+12,X,Opportunity Academy,County Community,SCHOOL,,,,14113.25044,-122.0979463,37.65835063,,POINT (-184724.27142752832 -37926.21448326111)
10,1.10E+12,X,Aurum Preparatory Academy,Middle,SCHOOL,,,,23625.58116,-122.19604,37.75863,,POINT (-193105.76077024147 -26585.84705281863)
11,1.10E+12,X,Hayward Collegiate Charter,Elementary,SCHOOL,,,,27489.94636,-122.082061,37.648071,,POINT (-183350.23496210782 -39099.53043239005)
12,1.10E+12,27946497,Cox Academy,Elementary,SCHOOL,11,3_3C,Pacific Gas & Electric Company,93327.29054,-122.1614,37.7463,Bay Area,POINT (-190090.15597794033 -28026.202584752813)
13,1.10E+12,27209442,Lazear Charter Academy,Elementary,SCHOOL,4,3_3C,Pacific Gas & Electric Company,40194.78232,-122.23178,37.77556,Bay Area,POINT (-196205.03822478015 -24630.899678974412)
14,1.32E+12,302176776,California School for the Blind,State Special,SCHOOL,1,3_3C,Pacific Gas & Electric Company,8558.945275,-121.96549,37.5618,Bay Area,POINT (-173280.25911233653 -48907.049882227555)
15,1.32E+12,302177665,California School for the Deaf-Fremont,State Special,SCHOOL,1,3_3C,Pacific Gas & Electric Company,6450.130166,-121.96335,37.55976,Bay Area,POINT (-173096.22276425108 -49137.68891866598)
16,1.61E+12,X,Alameda Science and Technology Institute,Alternative Schools of Choice,SCHOOL,,,,61426.03852,-122.28051,37.7814,,POINT (-200474.54742037054 -23879.88273223024)
17,1.61E+12,91234879,Ruby Bridges Elementary,Elementary,SCHOOL,14,3_3C,Pacific Gas & Electric Company,60447.4022,-122.28512,37.78255,Bay Area,POINT (-200876.8172719836 -23742.316297914833)
18,1.61E+12,301425030,Nea Community Learning Center,K-12,SCHOOL,18,3_3C,Pacific Gas & Electric Company,76277.83788,-122.28729,37.77921,Bay Area,POINT (-201076.57615184438 -24108.902441392653)
19,1.61E+12,301425029,The Academy of Alameda,Middle,SCHOOL,4,3_3C,Pacific Gas & Electric Company,49985.86393,-122.2854,37.77704,Bay Area,POINT (-200916.2007518504 -24354.072159060277)
20,1.61E+12,210717799,Alameda High,High,SCHOOL,6,3_3C,Pacific Gas & Electric Company,196711.1463,-122.246134,37.764707,Bay Area,POINT (-197495.85855567933 -25807.236476364546)
21,1.61E+12,301425030,Alameda Community Learning Center,K-12,SCHOOL,18,3_3C,Pacific Gas & Electric Company,76277.83788,-122.28729,37.77921,Bay Area,POINT (-201076.57615184438 -24108.902441392653)
22,1.61E+12,27293436,Alternatives in Action,High,SCHOOL,6,3_3C,Pacific Gas & Electric Company,35976.26213,-122.19551,37.76434,Bay Area,POINT (-193044.4453429003 -25952.336860592943)
23,1.61E+12,301425029,The Academy of Alameda Elementary,Elementary,SCHOOL,4,3_3C,Pacific Gas & Electric Company,49985.86393,-122.28535,37.77656,Bay Area,POINT (-200913.09026519017 -24407.522525905166)
24,1.61E+12,404589154,Encinal Junior/Senior High,K-12,SCHOOL,26,3_3C,Pacific Gas & Electric Company,142602.6858,-122.2897,37.77171,Bay Area,POINT (-201308.62380970098 -24937.29162373487)
25,1.61E+12,230604912,Island High (Continuation),Continuation,SCHOOL,4,3_3C,Pacific Gas & Electric Company,39078.97464,-122.28151,37.77613,Bay Area,POINT (-200576.57285155702 -24463.44455130305)
26,1.61E+12,297780734,Maya Lin,Elementary,SCHOOL,1,3_3C,Pacific Gas & Electric Company,39379.59014,-122.271811,37.772485,Bay Area,POINT (-199733.40055548865 -24889.0145488875)
27,1.61E+12,339654220,Edison Elementary,Elementary,SCHOOL,10,3_3C,Pacific Gas & Electric Company,34887.94255,-122.23476,37.76455,Bay Area,POINT (-196495.93658605026 -25848.328464117367)
28,1.61E+12,40223286,Frank Otis Elementary,Elementary,SCHOOL,5,3_3C,Pacific Gas & Electric Company,44143.0252,-122.2383,37.75381,Bay Area,POINT (-196835.46192749136 -27034.577220759355)
29,1.61E+12,230605410,Franklin Elementary,Elementary,SCHOOL,4,3_3C,Pacific Gas & Electric Company,18531.14511,-122.26084,37.76885,Bay Area,POINT (-198778.2523208264 -25316.05676274048)
30,1.61E+12,297782025,Love Elementary,Elementary,SCHOOL,4,3_3C,Pacific Gas & Electric Company,38828.87014,-122.2512,37.76918,Bay Area,POINT (-197929.60189021652 -25299.559467211366)
31,1.61E+12,199894417,Lincoln Middle,Middle,SCHOOL,9,3_3C,Pacific Gas & Electric Company,64856.37915,-122.23146,37.75283,Bay Area,POINT (-196236.36563500733 -27157.67552429065)
32,1.61E+12,230612046,Will C. Wood Middle,Middle,SCHOOL,7,3_3C,Pacific Gas & Electric Company,51331.46499,-122.26243,37.76131,Bay Area,POINT (-198938.0830434887 -26150.67684004875)
33,1.61E+12,297782971,William G. Paden Elementary,Elementary,SCHOOL,5,3_3C,Pacific Gas & Electric Company,35465.32452,-122.28393,37.77121,Bay Area,POINT (-200802.54958992533 -25005.100251777098)
34,1.61E+12,40223530,Amelia Earhart Elementary,Elementary,SCHOOL,12,3_3C,Pacific Gas & Electric Company,56575.94754,-122.2382,37.74493,Bay Area,POINT (-196849.96810071566 -28021.667240112554)
35,1.61E+12,X,Bay Farm,Elementary,SCHOOL,,,,87214.43843,-122.25138,37.74413,,POINT (-198011.55340659863 -28083.116969986353)
36,1.61E+12,24638973,MacGregor High (Continuation),Continuation,SCHOOL,4,3_3B,Pacific Gas & Electric Company,87785.17217,-122.29237,37.89625,Bay Area,POINT (-201208.7038420255 -11090.97503154492)
37,1.61E+12,24638973,Albany High,High,SCHOOL,4,3_3B,Pacific Gas & Electric Company,87785.17217,-122.29183,37.8963,Bay Area,POINT (-201161.16085157418 -11086.56465328997)
38,1.61E+12,45303399,Cornell Elementary,Elementary,SCHOOL,5,3_3C,Pacific Gas & Electric Company,38854.75809,-122.29534,37.88967,Bay Area,POINT (-201487.1589022261 -11815.92725086119)
39,1.61E+12,24638974,Albany Middle,Middle,SCHOOL,7,3_3B,Pacific Gas & Electric Company,63385.71727,-122.29535,37.89802,Bay Area,POINT (-201465.56591755708 -10887.936483136378)
40,1.61E+12,36811248,Marin Elementary,Elementary,SCHOOL,3,3_3C,Pacific Gas & Electric Company,28093.4999,-122.28804,37.88821,Bay Area,POINT (-200850.12450339404 -11993.679346857127)
41,1.61E+12,45303398,Ocean View Elementary,Elementary,SCHOOL,3,3_3C,Pacific Gas & Electric Company,59927.76878,-122.30136,37.88688,Bay Area,POINT (-202023.2510039511 -12113.174686291255)
42,1.61E+12,27762630,Berkeley High,High,SCHOOL,12,3_3C,Pacific Gas & Electric Company,264238.3572,-122.27155,37.86845,Bay Area,POINT (-199454.87075329584 -14224.525053989608)
43,1.61E+12,69020456,Berkeley Technology Academy,Continuation,SCHOOL,5,3_3C,Pacific Gas & Electric Company,24950.92986,-122.27117,37.85941,Bay Area,POINT (-199445.56821301527 -15229.982931384351)
44,1.61E+12,54582535,Martin Luther King Middle,Middle,SCHOOL,8,3_3C,Pacific Gas & Electric Company,112700.633,-122.2772,37.88167,Bay Area,POINT (-199915.79637631972 -12743.419572087005)
45,1.61E+12,69020906,Willard Middle,Middle,SCHOOL,6,3_3C,Pacific Gas & Electric Company,92995.77183,-122.25841,37.85992,Bay Area,POINT (-198323.41041405866 -15200.0832478581)
46,1.61E+12,28406884,Rosa Parks Environmental Science,Elementary,SCHOOL,12,3_3C,Pacific Gas & Electric Company,47898.95759,-122.2947,37.86543,Bay Area,POINT (-201496.18076142264 -14511.178091671318)
47,1.61E+12,30910552,Cragmont Elementary,Elementary,SCHOOL,1,3_3C,Pacific Gas & Electric Company,25162.41505,-122.26781,37.89404,Bay Area,POINT (-199058.35817111176 -11388.44936658768)
48,1.61E+12,215827733,Emerson Elementary,Elementary,SCHOOL,1,3_3C,Pacific Gas & Electric Company,24889.33078,-122.2504,37.86105,Bay Area,POINT (-197616.85294089856 -15091.233673576731)
49,1.61E+12,30910549,Ruth Acty Elementary,Elementary,SCHOOL,1,3_3C,Pacific Gas & Electric Company,35708.6881,-122.28492,37.87862,Bay Area,POINT (-200601.86883142698 -13066.066011029761)
50,1.61E+12,233173242,Sylvia Mendez Elementary,Elementary,SCHOOL,4,3_3C,Pacific Gas & Electric Company,43648.13837,-122.26264,37.85773,Bay Area,POINT (-198700.77086957317 -15434.608277489897)
51,1.61E+12,69020512,Malcolm X Elementary,Elementary,SCHOOL,1,3_3C,Pacific Gas & Electric Company,37460.93752,-122.27363,37.85256,Bay Area,POINT (-199679.90817182374 -15986.075383233838)
52,1.61E+12,9387379,Longfellow Arts and Technology Middle,Middle,SCHOOL,4,3_3C,Pacific Gas & Electric Company,67587.3117,-122.27907,37.85849,Bay Area,POINT (-200141.94150950835 -15315.571466847789)
53,1.61E+12,69020737,Oxford Elementary at West Campus,Elementary,SCHOOL,7,3_3C,Pacific Gas & Electric Company,60470.60073,-122.288558,37.86937899,Bay Area,POINT (-200946.1327764989 -14085.351478796452)
54,1.61E+12,30910550,Thousand Oaks Elementary,Elementary,SCHOOL,1,3_3C,Pacific Gas & Electric Company,48121.11874,-122.28063,37.89292,Bay Area,POINT (-200186.90746730662 -11485.915369293187)
55,1.61E+12,203290645,Washington Elementary,Elementary,SCHOOL,3,3_3C,Pacific Gas & Electric Company,26200.43747,-122.27312,37.86667,Bay Area,POINT (-199597.50264924354 -14419.03933459986)
56,1.61E+12,30909403,Berkeley Arts Magnet at Whittier,Elementary,SCHOOL,8,3_3C,Pacific Gas & Electric Company,36780.31368,-122.2706,37.87688,Bay Area,POINT (-199348.99356831095 -13289.658025042154)
57,1.61E+12,22958127,John Muir Elementary,Elementary,SCHOOL,1,3_3C,Pacific Gas & Electric Company,22910.5494,-122.24498,37.85744,Bay Area,POINT (-197150.28358178298 -15503.721436277498)
58,1.61E+12,548485524,Roy A. Johnson High,Special Education,SCHOOL,16,3_3C,Pacific Gas & Electric Company,36498.91584,-122.09289,37.713,Bay Area,POINT (-184144.82943434067 -31862.385651989374)
59,1.61E+12,28673511,Castro Valley High,High,SCHOOL,10,3_3C,Pacific Gas & Electric Company,113653.6602,-122.07668,37.70431,Bay Area,POINT (-182739.2966438551 -32859.56536765909)
60,1.61E+12,548485524,Castro Valley Virtual Academy,K-12,SCHOOL,16,3_3C,Pacific Gas & Electric Company,36498.91584,-122.09289,37.713,Bay Area,POINT (-184144.82943434067 -31862.385651989374)
61,1.61E+12,548485524,Redwood Continuation High,Continuation,SCHOOL,16,3_3C,Pacific Gas & Electric Company,36498.91584,-122.09206,37.71363,Bay Area,POINT (-184070.23350317642 -31793.98053872492)
62,1.61E+12,79292896,Castro Valley Elementary,Elementary,SCHOOL,16,3_3C,Pacific Gas & Electric Company,42619.36724,-122.08156,37.69804,Bay Area,POINT (-183184.15256089892 -33546.98744510254)
63,1.61E+12,401098506,Chabot Elementary,Elementary,SCHOOL,13,3_3C,Pacific Gas & Electric Company,39655.85437,-122.0896,37.70723,Bay Area,POINT (-183869.4031464789 -32510.04685731232)
64,1.61E+12,79292881,Creekside Middle,Middle,SCHOOL,16,3_3C,Pacific Gas & Electric Company,74811.81453,-122.06078,37.6992,Bay Area,POINT (-181352.06897464732 -33458.03398789046)
65,1.61E+12,X,Independent Elementary,Elementary,SCHOOL,,,,69448.23384,-122.05076,37.69855,,POINT (-180471.57336327588 -33549.404207708314)
66,1.61E+12,79292897,Marshall Elementary,Elementary,SCHOOL,13,3_3C,Pacific Gas & Electric Company,41063.36533,-122.06647,37.69865,Bay Area,POINT (-181854.29009384412 -33508.256573378574)
67,1.61E+12,X,Palomares Elementary,Elementary,SCHOOL,,,,10848.77573,-122.02542,37.69458,,POINT (-178250.29776439266 -34038.59394422406)
68,1.61E+12,2595142,Proctor Elementary,Elementary,SCHOOL,21,3_3C,Pacific Gas & Electric Company,44234.33472,-122.0726,37.71639,Bay Area,POINT (-182350.80662923033 -31524.85882662842)
69,1.61E+12,349295674,Stanton Elementary,Elementary,SCHOOL,11,3_3C,Pacific Gas & Electric Company,37217.57712,-122.09379,37.70045,Bay Area,POINT (-184254.84941065544 -33255.43149934057)
70,1.61E+12,186603378,Vannoy Elementary,Elementary,SCHOOL,7,3_3C,Pacific Gas & Electric Company,42858.80316,-122.05877,37.70712,Bay Area,POINT (-181156.0119532648 -32581.650550524704)
71,1.61E+12,186603373,Canyon Middle,Middle,SCHOOL,21,3_3C,Pacific Gas & Electric Company,161145.6597,-122.05098,37.70573,Bay Area,POINT (-180473.67458173906 -32750.999138935003)
72,1.61E+12,466208730,Jensen Ranch Elementary,Elementary,SCHOOL,11,3_3C,Pacific Gas & Electric Company,39237.56264,-122.03095,37.71263,Bay Area,POINT (-178694.15511937428 -32022.089107443113)
73,1.61E+12,29217029,Emery Secondary,High,SCHOOL,5,3_3C,Pacific Gas & Electric Company,70314.36828,-122.28219,37.83582,Bay Area,POINT (-200476.6553683915 -17828.395293639507)
74,1.61E+12,29217029,Anna Yates Elementary,Elementary,SCHOOL,5,3_3C,Pacific Gas & Electric Company,70314.36828,-122.28241,37.83631,Bay Area,POINT (-200494.67441941836 -17773.474027548917)
75,1.61E+12,X,Young Adult Program,Special Education,SCHOOL,,,,19460.60625,-121.99128,37.53827,,POINT (-175609.67512345358 -51474.71242090082)
76,1.61E+12,39159601,American High,High,SCHOOL,1,3_3C,Pacific Gas & Electric Company,240164.0368,-122.0163,37.56451,Bay Area,POINT (-177754.89556257433 -48511.74857056048)
77,1.61E+12,9065269,Robertson High (Continuation),Continuation,SCHOOL,1,3_3C,Pacific Gas & Electric Company,57132.36105,-121.96446,37.52015,Bay Area,POINT (-173285.34925720305 -53537.950163903646)
78,1.61E+12,9065269,Vista Alternative,Alternative Schools of Choice,SCHOOL,1,3_3C,Pacific Gas & Electric Company,57132.36105,-121.96427,37.51999,Bay Area,POINT (-173268.9518970741 -53556.08001974458)
79,1.61E+12,X,Circle of Independent Learning,K-12,SCHOOL,,,,52518.95942,-121.99128,37.53827,,POINT (-175609.67512345358 -51474.71242090082)
80,1.61E+12,39260124,Irvington High,High,SCHOOL,16,3_3C,Pacific Gas & Electric Company,277624.4293,-121.96631,37.52402,Bay Area,POINT (-173439.67416789848 -53104.45134990942)
81,1.61E+12,40218482,John F. Kennedy High,High,SCHOOL,14,3_3C,Pacific Gas & Electric Company,193313.8934,-121.98647,37.52911,Bay Area,POINT (-175206.67173574056 -52501.66015828587)
82,1.61E+12,38915607,Mission San Jose High,High,SCHOOL,10,3_3C,Pacific Gas & Electric Company,230493.0312,-121.93403,37.54458,Bay Area,POINT (-170544.7563455531 -50877.97841594042)
83,1.61E+12,492902543,Washington High,High,SCHOOL,23,3_3C,Pacific Gas & Electric Company,212338.578,-121.99483,37.55284,Bay Area,POINT (-175888.7785686678 -49848.81532405643)
84,1.61E+12,39260091,John Blacow Elementary,Elementary,SCHOOL,5,3_3C,Pacific Gas & Electric Company,75281.5915,-121.97606,37.5275,Bay Area,POINT (-174291.92071999187 -52699.79317193059)
85,1.61E+12,297190486,Brier Elementary,Elementary,SCHOOL,16,3_3C,Pacific Gas & Electric Company,96049.93064,-121.98481,37.54071,Bay Area,POINT (-175033.2150782957 -51215.50055747479)
86,1.61E+12,40255537,Cabrillo Elementary,Elementary,SCHOOL,8,3_3C,Pacific Gas & Electric Company,51316.1081,-122.02357,37.55172,Bay Area,POINT (-178426.3694561142 -49919.56249967776)
87,1.61E+12,40479838,E. M. Grimmer Elementary,Elementary,SCHOOL,8,3_3C,Pacific Gas & Electric Company,73821.65163,-121.9511,37.52018,Bay Area,POINT (-172106.37276543112 -53558.96376035549)
88,1.61E+12,40255525,Glenmoor Elementary,Elementary,SCHOOL,12,3_3C,Pacific Gas & Electric Company,71329.99422,-122.00479,37.54508,Bay Area,POINT (-176785.514889392 -50692.72845498938)
89,1.61E+12,382350400,Harvey Green Elementary,Elementary,SCHOOL,9,3_3C,Pacific Gas & Electric Company,54028.06645,-121.95945,37.51947,Bay Area,POINT (-172844.82141002564 -53622.67570379842)
90,1.61E+12,291934082,J. Haley Durham Elementary,Elementary,SCHOOL,11,3_3C,Pacific Gas & Electric Company,75437.7681,-121.9663,37.54268,Bay Area,POINT (-173395.7737612276 -51030.58344647894)
91,1.61E+12,1752726,James Leitch Elementary,Elementary,SCHOOL,19,3_3C,Pacific Gas & Electric Company,63226.36802,-121.92298,37.48745,Bay Area,POINT (-169698.80067827992 -57247.326731937006)
92,1.61E+12,297190632,Joseph Azevada Elementary,Elementary,SCHOOL,6,3_3C,Pacific Gas & Electric Company,74467.31293,-121.99394,37.53154,Bay Area,POINT (-175860.0726691092 -52217.75239620311)
93,1.61E+12,40255529,Tom Maloney Elementary,Elementary,SCHOOL,8,3_3C,Pacific Gas & Electric Company,59806.503,-121.99799,37.54592,Bay Area,POINT (-176183.708712588 -50612.035140970256)
94,1.61E+12,297190488,John G. Mattos Elementary,Elementary,SCHOOL,12,3_3C,Pacific Gas & Electric Company,63506.32919,-122.01176,37.53879,Bay Area,POINT (-177415.1843346057 -51378.77152631385)
95,1.61E+12,355803146,Mission Valley Elementary,Elementary,SCHOOL,16,3_3C,Pacific Gas & Electric Company,76651.65613,-121.94674,37.53639,Bay Area,POINT (-171684.64057656657 -51765.27559656603)
96,1.61E+12,37584756,Niles Elementary,Elementary,SCHOOL,14,3_3C,Pacific Gas & Electric Company,53279.79425,-121.98453,37.57654,Bay Area,POINT (-174925.14729645746 -47233.8508217358)
97,1.61E+12,650560998,O. N. Hirsch Elementary,Elementary,SCHOOL,10,3_3C,Pacific Gas & Electric Company,45147.87949,-121.96399,37.52802,Bay Area,POINT (-173225.75395421663 -52664.13230070565)
98,1.61E+12,349306142,Parkmont Elementary,Elementary,SCHOOL,12,3_3C,Pacific Gas & Electric Company,62875.89678,-121.98363,37.56094,Bay Area,POINT (-174882.0705071673 -48969.30690274248)
99,1.61E+12,38738862,Patterson Elementary,Elementary,SCHOOL,21,3_3C,Pacific Gas & Electric Company,68161.88658,-122.03137,37.56183,Bay Area,POINT (-179090.27631661834 -48781.22840062855)
100,1.61E+12,38916650,Vallejo Mill Elementary,Elementary,SCHOOL,13,3_3C,Pacific Gas & Electric Company,50852.94425,-121.96109,37.57502,Bay Area,POINT (-172861.81511716946 -47445.79947241675)
101,1.61E+12,39259623,Warm Springs Elementary,Elementary,SCHOOL,14,3_3C,Pacific Gas & Electric Company,78660.18152,-121.92379,37.48274,Bay Area,POINT (-169780.93140380914 -57769.35068748426)
102,1.61E+12,X,Centerville Junior High,Middle,SCHOOL,,,,82265.61158,-122.00141,37.5559,,POINT (-176461.97068765532 -49496.49314306257)
103,1.61E+12,220503726,G. M. Walters Middle,Middle,SCHOOL,2,3_3C,Pacific Gas & Electric Company,104854.2221,-121.98336,37.53677,Bay Area,POINT (-174914.46238473474 -51656.070950600784)
104,1.61E+12,39260131,John M. Horner Middle,Middle,SCHOOL,24,3_3C,Pacific Gas & Electric Company,177621.2041,-121.9641631,37.52940218,Bay Area,POINT (-173237.8466173709 -52510.19899188401)
105,1.61E+12,40255534,Thornton Junior High,Middle,SCHOOL,25,3_3C,Pacific Gas & Electric Company,117159.0749,-122.01555,37.55666,Bay Area,POINT (-177707.30452811308 -49385.60285493126)
106,1.61E+12,38915558,William Hopkins Junior High,Middle,SCHOOL,10,3_3C,Pacific Gas & Electric Company,102674.613,-121.94188,37.54656,Bay Area,POINT (-171232.72319141292 -50643.76152308937)
107,1.61E+12,37784271,John Gomes Elementary,Elementary,SCHOOL,21,3_3C,Pacific Gas & Electric Company,74567.20743,-121.94881,37.55101,Bay Area,POINT (-171833.85702950574 -50136.637638651766)
108,1.61E+12,349308594,Brookvale Elementary,Elementary,SCHOOL,11,3_3C,Pacific Gas & Electric Company,47300.36046,-122.01532,37.56816,Bay Area,POINT (-177659.84646277947 -48107.92581085302)
109,1.61E+12,43968117,Warwick Elementary,Elementary,SCHOOL,24,3_3C,Pacific Gas & Electric Company,78679.10667,-122.03193,37.57677,Bay Area,POINT (-179104.07177987086 -47119.74551947648)
110,1.61E+12,38915602,Joshua Chadbourne Elementary,Elementary,SCHOOL,12,3_3C,Pacific Gas & Electric Company,82184.22412,-121.94043,37.54296,Bay Area,POINT (-171113.00739960506 -51046.49010933936)
111,1.61E+12,39260276,Mission San Jose Elementary,Elementary,SCHOOL,14,3_3C,Pacific Gas & Electric Company,59005.0002,-121.92218,37.52831,Bay Area,POINT (-169536.0926524578 -52707.51786654815)
112,1.61E+12,349311586,Oliveira Elementary,Elementary,SCHOOL,22,3_3C,Pacific Gas & Electric Company,66686.47833,-122.01701,37.5605,Bay Area,POINT (-177826.99221878772 -48956.08723065676)
113,1.61E+12,40300761,Steven Millard Elementary,Elementary,SCHOOL,5,3_3C,Pacific Gas & Electric Company,65088.78338,-121.97487,37.51964,Bay Area,POINT (-174205.1228712196 -53575.54495094996)
114,1.61E+12,40316453,Ardenwood Elementary,Elementary,SCHOOL,19,3_3C,Pacific Gas & Electric Company,64239.25814,-122.05289,37.57257,Bay Area,POINT (-180962.2988134131 -47546.71007250808)
115,1.61E+12,39245165,Fred E. Weibel Elementary,Elementary,SCHOOL,20,3_3C,Pacific Gas & Electric Company,68792.30208,-121.92648,37.5062,Bay Area,POINT (-169965.43254873235 -55157.1547447755)
116,1.61E+12,28779808,Forest Park Elementary,Elementary,SCHOOL,9,3_3C,Pacific Gas & Electric Company,75576.73823,-122.05212,37.56208,Bay Area,POINT (-180919.64018678138 -48714.02811802225)
117,1.61E+12,649813012,Leadership Public Schools - Hayward,High,SCHOOL,15,3_3C,Pacific Gas & Electric Company,54749.16919,-122.08679,37.62325,Bay Area,POINT (-183827.53635562796 -41848.94479061011)
118,1.61E+12,767924567,Stonebrae Elementary,Elementary,SCHOOL,8,3_3C,Pacific Gas & Electric Company,60280.46667,-122.01759,37.6536,Bay Area,POINT (-177657.91567363706 -38607.843097226694)
119,1.61E+12,186603376,Golden Oak Montessori of Hayward,Elementary,SCHOOL,3,3_3C,Pacific Gas & Electric Company,30567.63045,-122.07019,37.68784,Bay Area,POINT (-182208.00027115038 -34702.53017854877)
120,1.61E+12,X,Knowledge Enlightens You (KEY) Academy,Elementary,SCHOOL,,,,56115.13972,-122.07222,37.67713,,POINT (-182412.74769622856 -35888.92853128398)
121,1.61E+12,10825039,Silver Oak High Public Montessori Charter,High,SCHOOL,1,3_3C,Pacific Gas & Electric Company,198599.1736,-122.098718,37.672036,Bay Area,POINT (-184758.56501468294 -36403.73613392748)
122,1.61E+12,X,Highland,Special Education,SCHOOL,,,,33157.82417,-122.05655,37.66142,,POINT (-181070.79801960217 -37664.984042384196)
123,1.61E+12,10825039,Brenkwitz High,Continuation,SCHOOL,1,3_3C,Pacific Gas & Electric Company,198599.1736,-122.09834,37.67259,Bay Area,POINT (-184723.91519082413 -36342.90219381405)
124,1.61E+12,155528401,Hayward High,High,SCHOOL,22,3_3C,Pacific Gas & Electric Company,212315.7912,-122.0685,37.6718,Bay Area,POINT (-182098.1080918872 -36488.45646156417)
125,1.61E+12,40476366,Mt. Eden High,High,SCHOOL,11,3_3C,Pacific Gas & Electric Company,234938.3927,-122.09014,37.6248,Bay Area,POINT (-184118.93385558663 -41670.17629834218)
126,1.61E+12,496714787,Impact Academy of Arts & Technology,K-12,SCHOOL,1,3_3C,Pacific Gas & Electric Company,39627.7674,-122.10291,37.63093,Bay Area,POINT (-185229.06368770535 -40964.01181320893)
127,1.61E+12,407800032,Tennyson High,High,SCHOOL,9,3_3C,Pacific Gas & Electric Company,215540.1931,-122.06642,37.64183,Bay Area,POINT (-181987.54983501448 -39823.29991387995)
128,1.61E+12,28671566,Bowman Elementary,Elementary,SCHOOL,10,3_3C,Pacific Gas & Electric Company,52994.96438,-122.06268,37.64276,Bay Area,POINT (-181655.81841024273 -39727.1163106747)
129,1.61E+12,345641606,Burbank Elementary,Elementary,SCHOOL,1,3_3C,Pacific Gas & Electric Company,49239.29885,-122.0952,37.66614,Bay Area,POINT (-184463.25066801152 -37065.863605410326)
130,1.61E+12,780653815,Cherryland Elementary,Elementary,SCHOOL,6,3_3C,Pacific Gas & Electric Company,67676.07368,-122.09498,37.67252,Bay Area,POINT (-184428.20498825714 -36357.22640679311)
131,1.61E+12,69502453,East Avenue Elementary,Elementary,SCHOOL,2,3_3C,Pacific Gas & Electric Company,53908.57457,-122.05493,37.6714,Bay Area,POINT (-180904.0733171855 -36558.90318088001)
132,1.61E+12,X,Eldridge Elementary,Elementary,SCHOOL,,,,51811.35068,-122.08591,37.63603,,POINT (-183718.73760151744 -40430.298801203724)
133,1.61E+12,349316160,Fairview Elementary,Elementary,SCHOOL,2,3_3C,Pacific Gas & Electric Company,38631.03273,-122.0528,37.68058,Bay Area,POINT (-180694.4060217155 -35542.7029994973)
134,1.61E+12,X,Glassbrook Elementary,Elementary,SCHOOL,,,,56916.65354,-122.08017,37.6416,,POINT (-183199.4401765754 -39822.36782396305)
135,1.61E+12,297312336,Harder Elementary,Elementary,SCHOOL,22,3_3C,Pacific Gas & Electric Company,67283.63965,-122.09846,37.67567,Bay Area,POINT (-184726.9045532824 -36000.361061133444)
136,1.61E+12,246539680,Longwood Elementary,Elementary,SCHOOL,18,3_3C,Pacific Gas & Electric Company,63607.45757,-122.10956,37.65845,Bay Area,POINT (-185746.92121878036 -37892.46910189325)
137,1.61E+12,X,Lorin A. Eden Elementary,Elementary,SCHOOL,,,,52980.01036,-122.10015,37.62482,,POINT (-185000.92777753406 -41648.458216976374)
138,1.61E+12,463573502,Palma Ceia Elementary,Elementary,SCHOOL,5,3_3C,Pacific Gas & Electric Company,64370.05919,-122.08644,37.6275,Bay Area,POINT (-183786.29851658727 -41377.284391622525)
139,1.61E+12,X,Park Elementary,Elementary,SCHOOL,,,,53108.36786,-122.09315,37.65375,,POINT (-184313.11793951315 -38446.86133127753)
140,1.61E+12,40476352,Ruus Elementary,Elementary,SCHOOL,11,3_3C,Pacific Gas & Electric Company,55104.13055,-122.0737,37.62696,Bay Area,POINT (-182665.04736614294 -41461.9322509747)
141,1.61E+12,X,Schafer Park Elementary,Elementary,SCHOOL,,,,46681.50399,-122.08655,37.64208,,POINT (-183760.32324953726 -39756.66830143286)
142,1.61E+12,349336610,Southgate Elementary,Elementary,SCHOOL,15,3_3C,Pacific Gas & Electric Company,59896.20833,-122.09453,37.6383,Bay Area,POINT (-184472.61220451072 -40161.26806376455)
143,1.61E+12,28773527,Treeview Elementary,Elementary,SCHOOL,6,3_3C,Pacific Gas & Electric Company,35595.76909,-122.03742,37.62465,Bay Area,POINT (-179473.77222908594 -41787.98711625626)
144,1.61E+12,2099387,Bret Harte Middle,Middle,SCHOOL,5,3_3C,Pacific Gas & Electric Company,59442.56333,-122.07754,37.66936,Bay Area,POINT (-182900.12792254542 -36742.22678437084)
145,1.61E+12,155252956,Cesar Chavez Middle,Middle,SCHOOL,3,3_3C,Pacific Gas & Electric Company,73865.06456,-122.06333,37.63611,Bay Area,POINT (-181729.16799631127 -40464.94682619767)
146,1.61E+12,451777798,Anthony W. Ochoa Middle,Middle,SCHOOL,1,3_3C,Pacific Gas & Electric Company,49562.86984,-122.10948,37.64042,Bay Area,POINT (-185784.46749655987 -39896.44872627454)
147,1.61E+12,431580180,Winton Middle,Middle,SCHOOL,6,3_3C,Pacific Gas & Electric Company,70662.5298,-122.09019,37.65981,Bay Area,POINT (-184037.5435319851 -37779.11326798564)
148,1.61E+12,134659129,Strobridge Elementary,Elementary,SCHOOL,6,3_3C,Pacific Gas & Electric Company,62546.03952,-122.08841,37.68779,Bay Area,POINT (-183812.25938631804 -34672.899980581366)
149,1.61E+12,463573517,"Martin Luther King, Jr. Middle",Middle,SCHOOL,6,3_3C,Pacific Gas & Electric Company,110275.1472,-122.09163,37.63483,Bay Area,POINT (-184225.63051725482 -40552.56051181909)
150,1.61E+12,451777808,Eden Gardens Elementary,Elementary,SCHOOL,1,3_3C,Pacific Gas & Electric Company,44791.16091,-122.1075,37.63737,Bay Area,POINT (-185617.5705165671 -40239.30028549861)
151,1.61E+12,X,Tyrrell Elementary,Elementary,SCHOOL,,,,84979.61186,-122.07568,37.63848,,POINT (-182811.47811989722 -40177.79258420598)
152,1.61E+12,X,Faith Ringgold School of Arts and Science,Elementary,SCHOOL,,,,14113.25044,-122.07222,37.67713,,POINT (-182412.74769622856 -35888.92853128398)
153,1.61E+12,X,Vineyard Alternative,Alternative Schools of Choice,SCHOOL,,,,67582.42936,-121.74088,37.6766,,POINT (-153236.52272910153 -36534.66081879288)
154,1.61E+12,936459680,Del Valle Continuation High,Continuation,SCHOOL,1,12_3C,Pacific Gas & Electric Company,28530.78504,-121.76667,37.67862,Bay Area,POINT (-155503.45531593633 -36268.12813795125)
155,1.61E+12,35577836,Granada High,High,SCHOOL,15,12_3C,Pacific Gas & Electric Company,241438.6032,-121.78782,37.67485,Bay Area,POINT (-157373.8086296185 -36652.23213168746)
156,1.61E+12,24303469,Livermore High,High,SCHOOL,30,12_3C,Pacific Gas & Electric Company,224312.9853,-121.76144,37.68072,Bay Area,POINT (-155038.56782055763 -36043.2900995058)
157,1.61E+12,X,Lawrence Elementary,Elementary,SCHOOL,,,,45629.64436,-121.77059,37.69007,,POINT (-155824.87792243666 -34989.05890879035)
158,1.61E+12,349338591,Junction K-8,Elementary,SCHOOL,60,12_3C,Pacific Gas & Electric Company,122490.7674,-121.76644,37.68785,Bay Area,POINT (-155464.0854183758 -35242.621410294436)
159,1.61E+12,349340425,East Avenue Middle,Middle,SCHOOL,8,12_3C,Pacific Gas & Electric Company,81386.47475,-121.75085,37.67873,Bay Area,POINT (-154110.12888974472 -36281.74803298619)
160,1.61E+12,12007026,Emma C. Smith Elementary,Elementary,SCHOOL,6,12_3C,Pacific Gas & Electric Company,63973.75727,-121.79749,37.66609,Bay Area,POINT (-158243.84231312264 -37609.766905857716)
161,1.61E+12,349340498,Jackson Avenue Elementary,Elementary,SCHOOL,14,12_3C,Pacific Gas & Electric Company,82077.11444,-121.74173,37.68515,Bay Area,POINT (-153293.91540445422 -35582.97708775569)
162,1.61E+12,X,Joe Michell,Elementary,SCHOOL,,,,83266.51066,-121.7835,37.6693,,POINT (-157004.98027522446 -37276.26007276727)
163,1.61E+12,X,Marylin Avenue Elementary,Elementary,SCHOOL,,,,45629.64436,-121.78572,37.68444,,POINT (-157168.796929519 -35589.82512295572)
164,1.61E+12,12007024,William Mendenhall Middle,Middle,SCHOOL,18,12_3C,Pacific Gas & Electric Company,124452.1082,-121.79368,37.66285,Bay Area,POINT (-157915.09603798727 -37976.23590903636)
165,1.61E+12,546980831,Arroyo Seco Elementary,Elementary,SCHOOL,18,12_3C,Pacific Gas & Electric Company,53891.10984,-121.72849,37.68436,Bay Area,POINT (-152129.70513777767 -35692.121897458564)
166,1.61E+12,687893493,Andrew N. Christensen Middle,Middle,SCHOOL,4,12_3C,Pacific Gas & Electric Company,123790.8918,-121.7291,37.72606,Bay Area,POINT (-152098.87816812893 -31056.28519389592)
167,1.61E+12,X,Rancho Las Positas Elementary,Elementary,SCHOOL,,,,66533.36061,-121.79664,37.68801,,POINT (-158122.80538839696 -35174.8655398665)
168,1.61E+12,12025305,Sunset Elementary,Elementary,SCHOOL,8,12_3C,Pacific Gas & Electric Company,56524.62235,-121.77409,37.66272,Bay Area,POINT (-156189.92800927602 -38023.15426616371)
169,1.61E+12,X,Leo R. Croce Elementary,Elementary,SCHOOL,,,,61308.79823,-121.72895,37.71769,,POINT (-152102.64475208655 -31986.832665325608)
170,1.61E+12,687918943,Altamont Creek Elementary,Elementary,SCHOOL,9,12_3C,Pacific Gas & Electric Company,62319.02346,-121.71846,37.72263,Bay Area,POINT (-151169.42186446668 -31454.54961833125)
171,1.61E+12,497256986,Mountain House Elementary,Elementary,SCHOOL,1,12_3C,Pacific Gas & Electric Company,3135.425502,-121.57804,37.78729,Bay Area,POINT (-138691.4637871854 -24482.400722123682)
172,1.61E+12,39245355,Newark Memorial High,High,SCHOOL,26,3_3C,Pacific Gas & Electric Company,315001.898,-122.00195,37.52085,Bay Area,POINT (-176591.86579332463 -53390.94171656296)
173,1.61E+12,X,Crossroads High (Alternative),Alternative Schools of Choice,SCHOOL,,,,27218.46544,-122.0363,37.54686,,POINT (-179560.79900084765 -50435.65443577245)
174,1.61E+12,X,Bridgepoint High (Continuation),Continuation,SCHOOL,,,,24713.21241,-122.043,37.54869,,POINT (-180147.4139010797 -50219.55360504892)
175,1.61E+12,X,August Schilling Elementary,Elementary,SCHOOL,,,,59113.63541,-122.04713,37.52801,,POINT (-180561.34084854607 -52510.0446418426)
176,1.61E+12,X,E. L. Musick Elementary,Elementary,SCHOOL,,,,51790.59264,-122.03082,37.54373,,POINT (-179084.86724730104 -50793.890190203674)
177,1.61E+12,X,H. A. Snow Elementary,Elementary,SCHOOL,,,,55793.10188,-122.04892,37.5426,,POINT (-180684.22536998836 -50885.118644999806)
178,1.61E+12,X,James A. Graham Elementary,Elementary,SCHOOL,,,,50726.13694,-122.04221,37.53878,,POINT (-180101.4587718891 -51322.44241352705)
179,1.61E+12,X,Birch Grove Primary,Elementary,SCHOOL,,,,84297.35686,-122.01562,37.52921,,POINT (-177778.34763082906 -52436.25459072692)
180,1.61E+12,X,John F. Kennedy Elementary,Elementary,SCHOOL,,,,45732.38092,-122.04259,37.55211,,POINT (-180103.05898395128 -49840.237473397516)
181,1.61E+12,X,Lincoln Elementary,Elementary,SCHOOL,,,,52325.92582,-122.05252,37.53582,,POINT (-181018.1095223158 -51631.768608070444)
182,1.61E+12,X,Birch Grove Intermediate,Elementary,SCHOOL,,,,67165.9603,-122.02272,37.53463,,POINT (-178391.9256444271 -51820.53597485321)
183,1.61E+12,101154252,Newark Junior High,Middle,SCHOOL,1,3_3C,Pacific Gas & Electric Company,166377.5376,-122.04073,37.54231,Bay Area,POINT (-179962.4499789907 -50932.933620089665)
184,1.61E+12,X,Core Learning Academy at Conley-Caraballo High,Continuation,SCHOOL,,,,30104.30698,-122.02804,37.61511,,POINT (-178669.9125127082 -42865.9877975625)
185,1.61E+12,X,Alternative Learning Academy at Conley-Caraballo High,Alternative Schools of Choice,SCHOOL,,,,53895.71195,-122.02803,37.61477,,POINT (-178669.83971563066 -42903.79430140136)
186,1.61E+12,X,Decoto School for Independent Study,Alternative Schools of Choice,SCHOOL,,,,25133.15684,-122.02816,37.60642,,POINT (-178701.15190917658 -43831.568336847704)
187,1.61E+12,124954655,James Logan High,High,SCHOOL,15,3_3C,Pacific Gas & Electric Company,515823.246,-122.02524,37.59146,Bay Area,POINT (-178479.30775135808 -45499.72492723586)
188,1.61E+12,610373298,Alvarado Elementary,Elementary,SCHOOL,20,3_3C,Pacific Gas & Electric Company,79145.85477,-122.07678,37.59548,Bay Area,POINT (-183013.08920116487 -44954.639747050125)
189,1.61E+12,X,Hillview Crest Elementary,Elementary,SCHOOL,,,,72031.45778,-122.03518,37.61461,,POINT (-179300.34562368298 -42908.071894971654)
190,1.61E+12,X,Searles Elementary,Elementary,SCHOOL,,,,61298.99414,-122.0277,37.59554,,POINT (-178686.4735293984 -45041.638161799405)
191,1.61E+12,610373294,Itliong-Vera Cruz,Middle,SCHOOL,12,3_3C,Pacific Gas & Electric Company,167472.5684,-122.07579,37.5945,Bay Area,POINT (-182928.20480900648 -45065.467178790364)
192,1.61E+12,79430607,Cesar Chavez Middle,Middle,SCHOOL,6,3_3C,Pacific Gas & Electric Company,145658.8084,-122.04826,37.59118,Bay Area,POINT (-180509.34204814656 -45487.24056313699)
193,1.61E+12,707542973,Pioneer Elementary,Elementary,SCHOOL,10,3_3C,Pacific Gas & Electric Company,67710.31891,-122.07082,37.57239,Bay Area,POINT (-182543.76937913604 -47532.32568570273)
194,1.61E+12,X,Tom Kitayama Elementary,Elementary,SCHOOL,,,,48171.00125,-122.05028,37.59867,,POINT (-180669.41371199532 -44650.957462483086)
195,1.61E+12,89533739,Guy Jr. Emanuele Elementary,Elementary,SCHOOL,3,3_3C,Pacific Gas & Electric Company,83476.16514,-122.01599,37.60049,Bay Area,POINT (-177642.51386521294 -44513.511159142945)
196,1.61E+12,X,Delaine Eastin Elementary,Elementary,SCHOOL,,,,64048.77277,-122.07416,37.56745,,POINT (-182850.29739033728 -48074.91056860937)
197,1.61E+12,X,Oakland Unity High,High,SCHOOL,,,,47896.57409,-122.185,37.77361,,POINT (-192096.33654336954 -24943.45588572137)
198,1.61E+12,27209414,MetWest High,High,SCHOOL,2,3_3C,Pacific Gas & Electric Company,89378.14361,-122.25786,37.79531,Bay Area,POINT (-198446.13504969244 -22381.671887642704)
199,1.61E+12,X,Think College Now,Elementary,SCHOOL,,,,29131.1962,-122.2301,37.77961,,POINT (-196046.71544178942 -24184.277032302693)
200,1.61E+12,27946043,EnCompass Academy Elementary,Elementary,SCHOOL,7,3_3C,Pacific Gas & Electric Company,78663.44868,-122.18663,37.75303,Bay Area,POINT (-192292.4392403244 -27227.3472893741)
201,1.61E+12,X,Community Day,Community Day,SCHOOL,,,,33157.82417,-122.17828,37.78799,,POINT (-191468.6549266619 -23358.904606427066)
202,1.61E+12,27233291,Bay Area Technology,K-12,SCHOOL,15,3_3C,Pacific Gas & Electric Company,114267.6838,-122.15368,37.76597,Bay Area,POINT (-189361.34044664027 -25855.581606470514)
203,1.61E+12,6320066,Lighthouse Community Charter High,High,SCHOOL,1,3_3C,Pacific Gas & Electric Company,59905.33954,-122.19647,37.73603,Bay Area,POINT (-193201.7824165125 -29096.65651135659)
204,1.61E+12,435326931,Aspire Berkley Maynard Academy,Elementary,SCHOOL,5,3_3C,Pacific Gas & Electric Company,37568.58866,-122.28333,37.84577,Bay Area,POINT (-200550.18465209633 -16720.19585663313)
205,1.61E+12,25338967,McClymonds High,High,SCHOOL,3,3_3C,Pacific Gas & Electric Company,133909.0026,-122.27905,37.81818,Bay Area,POINT (-200247.89435067616 -19795.44571006205)
206,1.61E+12,27946497,Reach Academy,Elementary,SCHOOL,11,3_3C,Pacific Gas & Electric Company,93327.29054,-122.16142,37.74713,Bay Area,POINT (-190089.81206886604 -27933.918417869136)
207,1.61E+12,27209468,Manzanita SEED Elementary,Elementary,SCHOOL,7,3_3C,Pacific Gas & Electric Company,78540.7844,-122.22428,37.792,Bay Area,POINT (-195502.64064827486 -22819.327371595427)
208,1.61E+12,27204479,Sankofa United,Elementary,SCHOOL,7,3_3C,Pacific Gas & Electric Company,35639.68764,-122.264,37.8471,Bay Area,POINT (-198848.44878522475 -16613.120285837445)
209,1.61E+12,27946465,Rise Community,Elementary,SCHOOL,3,3_3C,Pacific Gas & Electric Company,62377.21179,-122.17875,37.7518,Bay Area,POINT (-191602.42436971553 -27380.00673372904)
210,1.61E+12,349621684,Achieve Academy,Elementary,SCHOOL,18,3_3C,Pacific Gas & Electric Company,56734.72957,-122.22661,37.78207,Bay Area,POINT (-195733.41114032606 -23918.097062630113)
211,1.61E+12,22989041,American Indian Public High,High,SCHOOL,1,3_3C,Pacific Gas & Electric Company,12497.58392,-122.24878,37.81137,Bay Area,POINT (-197605.54238731775 -20615.814889969304)
212,1.61E+12,27226271,United for Success Academy,Middle,SCHOOL,10,3_3C,Pacific Gas & Electric Company,97838.09799,-122.21655,37.78498,Bay Area,POINT (-194841.28118336096 -23615.422398525756)
213,1.61E+12,28004223,Elmhurst United Middle,Middle,SCHOOL,9,3_3C,Pacific Gas & Electric Company,87787.39872,-122.1661,37.74587,Bay Area,POINT (-190504.71801157697 -28064.55361096142)
214,1.61E+12,53293096,Coliseum College Prep Academy,K-12,SCHOOL,13,3_3C,Pacific Gas & Electric Company,154889.6125,-122.19305,37.76162,Bay Area,POINT (-192835.08076605794 -26259.637026045937)
215,1.61E+12,27946184,Fred T. Korematsu Discovery Academy,Elementary,SCHOOL,15,3_3C,Pacific Gas & Electric Company,86079.52226,-122.17397,37.73713,Bay Area,POINT (-191219.34024094004 -29020.042368038557)
216,1.61E+12,27204048,American Indian Public Charter II,Elementary,SCHOOL,3,3_3C,Pacific Gas & Electric Company,36320.73385,-122.26543,37.80012,Bay Area,POINT (-199098.85906779917 -21831.234838323202)
217,1.61E+12,X,Oakland Charter High,High,SCHOOL,,,,65649.22206,-122.21962,37.78589,,POINT (-195108.84534720704 -23507.97221649671)
218,1.61E+12,27203973,KIPP Bridge Academy,Elementary,SCHOOL,3,3_3C,Pacific Gas & Electric Company,45343.45684,-122.27924,37.8102,Bay Area,POINT (-200285.91717322115 -20681.89728062786)
219,1.61E+12,53293096,Community United Elementary,Elementary,SCHOOL,13,3_3C,Pacific Gas & Electric Company,154889.6125,-122.19193,37.76102,Bay Area,POINT (-192738.1144002199 -26328.597570640035)
220,1.61E+12,X,ARISE High,High,SCHOOL,,,,19333.92282,-122.2251,37.7761,,POINT (-195616.2126904986 -24584.696009159088)
221,1.61E+12,X,Civicorps Corpsmember Academy,High,SCHOOL,,,,3505.161157,-122.28573,37.79888,,POINT (-200886.69083310646 -21926.201242684387)
222,1.61E+12,53293096,Futures Elementary,Elementary,SCHOOL,13,3_3C,Pacific Gas & Electric Company,154889.6125,-122.19167,37.76085,Bay Area,POINT (-192715.68315473123 -26348.019525943324)
223,1.61E+12,27209216,Global Family,Elementary,SCHOOL,6,3_3C,Pacific Gas & Electric Company,81333.94675,-122.21321,37.77969,Bay Area,POINT (-194561.33540528646 -24210.19485611329)
224,1.61E+12,27209216,Learning Without Limits,Elementary,SCHOOL,6,3_3C,Pacific Gas & Electric Company,81333.94675,-122.21206,37.780364,Bay Area,POINT (-194458.46533665442 -24137.64945875667)
225,1.61E+12,27946155,East Oakland Pride Elementary,Elementary,SCHOOL,5,3_3C,Pacific Gas & Electric Company,74049.93827,-122.1745,37.7599,Bay Area,POINT (-191207.91979434516 -26488.380157507025)
226,1.61E+12,27293436,Greenleaf Elementary,Elementary,SCHOOL,6,3_3C,Pacific Gas & Electric Company,35976.26213,-122.19468,37.76453,Bay Area,POINT (-192970.95751229042 -25932.911323550157)
227,1.61E+12,27226749,West Oakland Middle,Middle,SCHOOL,3,3_3C,Pacific Gas & Electric Company,91395.26193,-122.28264,37.80849,Bay Area,POINT (-200589.3361925176 -20864.74596102815)
228,1.61E+12,28005196,Oakland International High,Alternative Schools of Choice,SCHOOL,5,3_3C,Pacific Gas & Electric Company,84580.7333,-122.26047,37.83361,Bay Area,POINT (-198574.08292036358 -18119.733160047326)
229,1.61E+12,419357602,Aspire Golden State College Preparatory Academy,K-12,SCHOOL,5,3_3C,Pacific Gas & Electric Company,181571.2253,-122.19885,37.75969,Bay Area,POINT (-193350.18778594516 -26462.312717763707)
230,1.61E+12,25338985,Ralph J. Bunche High,Continuation,SCHOOL,3,3_3C,Pacific Gas & Electric Company,48218.75113,-122.28673,37.81331,Bay Area,POINT (-200935.911621842 -20320.41395420162)
231,1.61E+12,X,Gateway to College at Laney College,Alternative Schools of Choice,SCHOOL,,,,39591.1482,-122.26319,37.79654,,POINT (-198911.44655140082 -22233.801466014702)
232,1.61E+12,404588378,Aspire ERES Academy,Elementary,SCHOOL,1,3_3C,Pacific Gas & Electric Company,18672.6724,-122.21178,37.77559,Bay Area,POINT (-194446.224426588 -24668.788424077444)
233,1.61E+12,28004607,Infant and Preschool Program,Preschool,SCHOOL,8,3_3C,Pacific Gas & Electric Company,36146.38642,-122.1772871,37.77516335,Bay Area,POINT (-191414.09922027873 -24786.427513525356)
234,1.61E+12,27225924,Young Adult Program,Special Education,SCHOOL,3,3_3C,Pacific Gas & Electric Company,30791.15867,-122.2898182,37.80749354,Bay Area,POINT (-201222.94963615297 -20960.269493625034)
235,1.61E+12,27225924,Home and Hospital Program,K-12,SCHOOL,3,3_3C,Pacific Gas & Electric Company,30791.15867,-122.28981,37.80749,Bay Area,POINT (-201222.24073790087 -20960.679792740382)
236,1.61E+12,407650689,Vincent Academy,Elementary,SCHOOL,5,3_3C,Pacific Gas & Electric Company,38636.36555,-122.28229,37.81791,Bay Area,POINT (-200533.36599187087 -19818.6008935743)
237,1.61E+12,27227736,Castlemont High,High,SCHOOL,23,3_3C,Pacific Gas & Electric Company,190476.248,-122.16369,37.75884,Bay Area,POINT (-190259.80132842975 -26627.943084352184)
238,1.61E+12,25338999,Fremont High,High,SCHOOL,8,3_3C,Pacific Gas & Electric Company,109638.1378,-122.20972,37.7744,Bay Area,POINT (-194268.15715745362 -24805.26551493723)
239,1.61E+12,27227736,LPS Oakland R & D Campus,High,SCHOOL,23,3_3C,Pacific Gas & Electric Company,190476.248,-122.16345,37.760231,Bay Area,POINT (-190235.16316904812 -26473.83267826354)
240,1.61E+12,X,Aspire College Academy,Elementary,SCHOOL,,,,46462.9504,-122.17054,37.76139,,POINT (-190855.8214005723 -26330.768522002734)
241,1.61E+12,X,Downtown Charter Academy,Middle,SCHOOL,,,,40528.06884,-122.24109,37.78041,,POINT (-197010.98338501973 -24072.577125166077)
242,1.61E+12,27946394,East Bay Innovation Academy,K-12,SCHOOL,2,3_3C,Pacific Gas & Electric Company,38249.62381,-122.14067,37.74542,Bay Area,POINT (-188268.69226156294 -28165.38737078756)
243,1.61E+12,27233291,Rudsdale Continuation,Continuation,SCHOOL,15,3_3C,Pacific Gas & Electric Company,114267.6838,-122.15392,37.76573,Bay Area,POINT (-189383.05439873692 -25881.775136117823)
244,1.61E+12,27233174,Street Academy (Alternative),Alternative Schools of Choice,SCHOOL,1,3_3C,Pacific Gas & Electric Company,7504.663396,-122.26565,37.81816,Bay Area,POINT (-199070.27858637116 -19825.900174755603)
245,1.61E+12,27226271,LIFE Academy,K-12,SCHOOL,10,3_3C,Pacific Gas & Electric Company,97838.09799,-122.21655,37.78498,Bay Area,POINT (-194841.28118336096 -23615.422398525756)
246,1.61E+12,54123022,"Oakland Military Institute, College Preparatory Academy",K-12,SCHOOL,4,3_3C,Pacific Gas & Electric Company,54445.91282,-122.27274,37.82954,Bay Area,POINT (-199663.06564797068 -18546.27086294396)
247,1.61E+12,6320066,Lighthouse Community Charter,Elementary,SCHOOL,1,3_3C,Pacific Gas & Electric Company,59905.33954,-122.19647,37.73603,Bay Area,POINT (-193201.7824165125 -29096.65651135659)
248,1.61E+12,X,Aspire Lionel Wilson College Preparatory Academy,K-12,SCHOOL,,,,38488.33858,-122.17989,37.72951,,POINT (-191759.67356432983 -29854.943864203524)
249,1.61E+12,X,Aspire Triumph Technology Academy,Elementary,SCHOOL,,,,55793.10188,-122.18214,37.77364,,POINT (-191844.75163171164 -24945.915428001434)
250,1.61E+12,27225724,Francophone Charter School of Oakland,Elementary,SCHOOL,7,3_3C,Pacific Gas & Electric Company,19477.64023,-122.157,37.7514,Bay Area,POINT (-189690.17955440722 -27468.2178687267)
251,1.61E+12,X,Conservatory of Vocal/Instrumental Arts High,High,SCHOOL,,,,48131.56074,-122.16536,37.78935,,POINT (-190329.233077648 -23233.7844462567)
252,1.61E+12,399099029,Dewey Academy,Continuation,SCHOOL,3,3_3C,Pacific Gas & Electric Company,20173.73059,-122.25839,37.79693,Bay Area,POINT (-198488.43942961757 -22200.52313377522)
253,1.61E+12,X,Lodestar: A Lighthouse Community Charter Public,K-12,SCHOOL,,,,104153.5009,-122.17776,37.73403,,POINT (-191560.71037789888 -29356.912756000645)
254,1.61E+12,25340322,Oakland High,High,SCHOOL,9,3_3C,Pacific Gas & Electric Company,137533.195,-122.23688,37.80448,Bay Area,POINT (-196577.66907511523 -21406.287410957273)
255,1.61E+12,22942715,Oakland Technical High,High,SCHOOL,12,3_3C,Pacific Gas & Electric Company,173313.7419,-122.25461,37.83248,Bay Area,POINT (-198062.16362732407 -18257.579020464327)
256,1.61E+12,27232917,Skyline High,High,SCHOOL,47,3_3C,Pacific Gas & Electric Company,239563.9515,-122.16062,37.79852,Bay Area,POINT (-189889.2537873621 -22224.16168553848)
257,1.61E+12,230391604,Oakland School for the Arts,K-12,SCHOOL,1,3_3C,Pacific Gas & Electric Company,54516.62381,-122.27064,37.808105,Bay Area,POINT (-199535.5971444283 -20932.86590342596)
258,1.61E+12,27293332,Allendale Elementary,Elementary,SCHOOL,3,3_3C,Pacific Gas & Electric Company,41616.60761,-122.20471,37.78848,Bay Area,POINT (-193791.19018916882 -23250.72312296601)
259,1.61E+12,22961553,Chabot Elementary,Elementary,SCHOOL,8,3_3C,Pacific Gas & Electric Company,46807.67218,-122.2432,37.85038,Bay Area,POINT (-197012.4956085053 -16292.039882523939)
260,1.61E+12,27209009,Bella Vista Elementary,Elementary,SCHOOL,6,3_3C,Pacific Gas & Electric Company,30044.51575,-122.23742,37.80021,Bay Area,POINT (-196636.33769626153 -21879.716209080536)
261,1.61E+12,27946100,Brookfield Elementary,Elementary,SCHOOL,5,3_3C,Pacific Gas & Electric Company,79492.55673,-122.18948,37.73466,Bay Area,POINT (-192590.29276190733 -29263.141804084647)
262,1.61E+12,27293403,Burckhalter Elementary,Elementary,SCHOOL,5,3_3C,Pacific Gas & Electric Company,26593.90599,-122.16699,37.77523,Bay Area,POINT (-190508.41994060486 -24799.770454648882)
263,1.61E+12,27293409,Carl B. Munck Elementary,Elementary,SCHOOL,5,3_3C,Pacific Gas & Electric Company,46504.60269,-122.17388,37.79498,Bay Area,POINT (-191063.9769818534 -22590.93582553137)
264,1.61E+12,27946379,Howard Elementary,Elementary,SCHOOL,8,3_3C,Pacific Gas & Electric Company,46093.35636,-122.15269,37.76224,Bay Area,POINT (-189283.6845752269 -26272.10336821759)
265,1.61E+12,27209058,Cleveland Elementary,Elementary,SCHOOL,4,3_3C,Pacific Gas & Electric Company,25692.5719,-122.24397,37.80395,Bay Area,POINT (-197202.292227571 -21450.45877444232)
266,1.61E+12,27209089,Crocker Highlands Elementary,Elementary,SCHOOL,2,3_3C,Pacific Gas & Electric Company,27356.03179,-122.22725,37.81096,Bay Area,POINT (-195714.2449988014 -20706.05974633107)
267,1.61E+12,27203778,Emerson Elementary,Elementary,SCHOOL,9,3_3C,Pacific Gas & Electric Company,42278.0623,-122.25827,37.83421,Bay Area,POINT (-198379.18486490357 -18057.65975658316)
268,1.61E+12,27209094,Franklin Elementary,Elementary,SCHOOL,3,3_3C,Pacific Gas & Electric Company,72243.92052,-122.24874,37.79344,Bay Area,POINT (-197649.29902833689 -22608.553976340685)
269,1.61E+12,27293425,Fruitvale Elementary,Elementary,SCHOOL,9,3_3C,Pacific Gas & Electric Company,41872.57349,-122.21378,37.79576,Bay Area,POINT (-194569.74677486814 -22423.065553791355)
270,1.61E+12,27209109,Garfield Elementary,Elementary,SCHOOL,2,3_3C,Pacific Gas & Electric Company,58236.80856,-122.2357,37.78642,Bay Area,POINT (-196521.28314744114 -23415.844070971943)
271,1.61E+12,27209128,Glenview Elementary,Elementary,SCHOOL,1,3_3C,Pacific Gas & Electric Company,19517.20802,-122.21929,37.80562,Bay Area,POINT (-195028.49317136366 -21315.936549670063)
272,1.61E+12,27946364,Grass Valley Elementary,Elementary,SCHOOL,14,3_3C,Pacific Gas & Electric Company,41782.22799,-122.1255,37.75277,Bay Area,POINT (-186915.80995197356 -27378.551414188463)
273,1.61E+12,27946465,New Highland Academy,Elementary,SCHOOL,3,3_3C,Pacific Gas & Electric Company,62377.21179,-122.179,37.75171,Bay Area,POINT (-191624.6457187841 -27389.503505614586)
274,1.61E+12,22775119,Hillcrest Elementary,Elementary,SCHOOL,2,3_3C,Pacific Gas & Electric Company,26137.94561,-122.23271,37.84082,Bay Area,POINT (-196115.98763829784 -17376.25534367049)
275,1.61E+12,27293449,Horace Mann Elementary,Elementary,SCHOOL,3,3_3C,Pacific Gas & Electric Company,39292.132,-122.2027,37.7739,Bay Area,POINT (-193652.12010255843 -24875.201757738832)
276,1.61E+12,27209305,Joaquin Miller Elementary,Elementary,SCHOOL,6,3_3C,Pacific Gas & Electric Company,41332.68532,-122.2024,37.81897,Bay Area,POINT (-193509.3596340211 -19866.890608696267)
277,1.61E+12,27293459,Laurel Elementary,Elementary,SCHOOL,5,3_3C,Pacific Gas & Electric Company,44581.94392,-122.19651,37.79289,Bay Area,POINT (-193058.87194212698 -22777.347760431003)
278,1.61E+12,27204048,Lincoln Elementary,Elementary,SCHOOL,3,3_3C,Pacific Gas & Electric Company,36320.73385,-122.26734,37.79995,Bay Area,POINT (-199267.21347881397 -21846.11326731555)
279,1.61E+12,27209468,Manzanita Community,Elementary,SCHOOL,7,3_3C,Pacific Gas & Electric Company,78540.7844,-122.22499,37.79218,Bay Area,POINT (-195564.5925014253 -22797.85791336)
280,1.61E+12,27293464,Markham Elementary,Elementary,SCHOOL,4,3_3C,Pacific Gas & Electric Company,41362.95952,-122.17887,37.76555,Bay Area,POINT (-191577.85465819997 -25851.629494012333)
281,1.61E+12,27293365,Bridges Academy,Elementary,SCHOOL,7,3_3C,Pacific Gas & Electric Company,41725.46239,-122.20716,37.76744,Bay Area,POINT (-194061.045529039 -25584.01929417206)
282,1.61E+12,22916692,Montclair Elementary,Elementary,SCHOOL,6,3_3C,Pacific Gas & Electric Company,48258.09316,-122.21304,37.83096,Bay Area,POINT (-194413.35915279048 -18512.586936921347)
283,1.61E+12,27946480,Parker Elementary,Elementary,SCHOOL,6,3_3C,Pacific Gas & Electric Company,31057.94887,-122.16569,37.76548,Bay Area,POINT (-190418.85667343743 -25885.973328196444)
284,1.61E+12,27204180,Peralta Elementary,Elementary,SCHOOL,7,3_3C,Pacific Gas & Electric Company,25759.44702,-122.25874,37.84954,Bay Area,POINT (-198379.88523862188 -16352.974938725587)
285,1.61E+12,27204250,Piedmont Avenue Elementary,Elementary,SCHOOL,4,3_3C,Pacific Gas & Electric Company,43530.00719,-122.2486,37.82875,Bay Area,POINT (-197543.90188676724 -18684.65805495018)
286,1.61E+12,27204443,Prescott,Elementary,SCHOOL,10,3_3C,Pacific Gas & Electric Company,45189.6191,-122.29773,37.80807,Bay Area,POINT (-201916.82871951346 -20879.37625573529)
287,1.61E+12,27293487,Redwood Heights Elementary,Elementary,SCHOOL,5,3_3C,Pacific Gas & Electric Company,34408.25067,-122.18616,37.79754,Bay Area,POINT (-192137.01083597622 -22281.596493673045)
288,1.61E+12,27293521,Sequoia Elementary,Elementary,SCHOOL,2,3_3C,Pacific Gas & Electric Company,35105.48125,-122.21105,37.80233,Bay Area,POINT (-194312.71178657652 -21698.50162986247)
289,1.61E+12,28004810,Madison Park Academy TK-5,Elementary,SCHOOL,8,3_3C,Pacific Gas & Electric Company,54409.51415,-122.1773,37.72761,Bay Area,POINT (-191536.62530811105 -30071.34195913514)
290,1.61E+12,27946184,Esperanza Elementary,Elementary,SCHOOL,15,3_3C,Pacific Gas & Electric Company,86079.52226,-122.1736,37.7368,Bay Area,POINT (-191187.62751902762 -29057.464079466183)
291,1.61E+12,23810205,Thornhill Elementary,Elementary,SCHOOL,8,3_3C,Pacific Gas & Electric Company,34810.06878,-122.21115,37.83573,Bay Area,POINT (-194234.9150007193 -17986.342100558337)
292,1.61E+12,27946043,ACORN Woodland Elementary,Elementary,SCHOOL,7,3_3C,Pacific Gas & Electric Company,78663.44868,-122.18628,37.75304,Bay Area,POINT (-192261.62621222227 -27226.946096161846)
293,1.61E+12,28004379,Bret Harte Middle,Middle,SCHOOL,9,3_3C,Pacific Gas & Electric Company,88528.12279,-122.20682,37.79971,Bay Area,POINT (-193947.64957444463 -21998.34424741706)
294,1.61E+12,22958176,Claremont Middle,Middle,SCHOOL,8,3_3C,Pacific Gas & Electric Company,63147.44299,-122.25092,37.84578,Bay Area,POINT (-197702.82606950626 -16787.185391010717)
295,1.61E+12,28004644,Frick United Academy of Language,Middle,SCHOOL,5,3_3C,Pacific Gas & Electric Company,90550.2453,-122.18447,37.7718,Bay Area,POINT (-192054.36406457284 -25145.687983680982)
296,1.61E+12,27203843,Hoover Elementary,Elementary,SCHOOL,5,3_3C,Pacific Gas & Electric Company,31635.90982,-122.2747,37.82336,Bay Area,POINT (-199851.77709752732 -19228.95151169598)
297,1.61E+12,28004451,Edna Brewer Middle,Middle,SCHOOL,3,3_3C,Pacific Gas & Electric Company,76403.34094,-122.2288,37.80354,Bay Area,POINT (-195869.87193735523 -21527.48554829927)
298,1.61E+12,27226181,Montera Middle,Middle,SCHOOL,12,3_3C,Pacific Gas & Electric Company,109966.5761,-122.20211,37.82039,Bay Area,POINT (-193480.20638223956 -19709.668711141683)
299,1.61E+12,23074364,Roosevelt Middle,Middle,SCHOOL,4,3_3C,Pacific Gas & Electric Company,84751.69803,-122.23715,37.78991,Bay Area,POINT (-196639.61862589378 -23024.973029977176)
300,1.61E+12,27227246,Westlake Middle,Middle,SCHOOL,4,3_3C,Pacific Gas & Electric Company,72589.04521,-122.26078,37.81455,Bay Area,POINT (-198651.842709364 -20237.3166277227)
301,1.61E+12,28004809,Madison Park Academy 6-12,K-12,SCHOOL,10,3_3C,Pacific Gas & Electric Company,92819.06659,-122.17884,37.727297,Bay Area,POINT (-191672.93559265113 -30103.01405461086)
302,1.61E+12,27204114,"Martin Luther King, Jr. Elementary",Elementary,SCHOOL,2,3_3C,Pacific Gas & Electric Company,69947.41871,-122.2828,37.80598,Bay Area,POINT (-200610.11747865222 -21143.35445888294)
303,1.61E+12,27209414,La Escuelita Elementary,Elementary,SCHOOL,2,3_3C,Pacific Gas & Electric Company,89378.14361,-122.25847,37.795992,Bay Area,POINT (-198497.95602006695 -22304.6002707188)
304,1.61E+12,404588378,Oakland Charter Academy,Middle,SCHOOL,1,3_3C,Pacific Gas & Electric Company,18672.6724,-122.213,37.77513,Bay Area,POINT (-194554.70097929033 -24717.4070807253)
305,1.61E+12,27204048,American Indian Public Charter,Middle,SCHOOL,3,3_3C,Pacific Gas & Electric Company,36320.73385,-122.26549,37.8001,Bay Area,POINT (-199104.18665564212 -21833.33153199544)
306,1.61E+12,27233291,"Independent Study, Sojourner Truth",Alternative Schools of Choice,SCHOOL,15,3_3C,Pacific Gas & Electric Company,114267.6838,-122.15368,37.76597,Bay Area,POINT (-189361.34044664027 -25855.581606470514)
307,1.61E+12,X,Aspire Monarch Academy,Elementary,SCHOOL,,,,25117.64653,-122.1678,37.74268,,POINT (-190662.37958005062 -28415.6627955148)
308,1.61E+12,687735718,North Oakland Community Charter,Elementary,SCHOOL,1,3_3C,Pacific Gas & Electric Company,20476.29979,-122.27647,37.8332,Bay Area,POINT (-199981.0609567878 -18131.6532367412)
309,1.61E+12,27208998,ASCEND,Elementary,SCHOOL,1,3_3C,Pacific Gas & Electric Company,34856.6352,-122.22066,37.77328,Bay Area,POINT (-195233.1182198618 -24907.255472006276)
310,1.61E+12,X,International Community,Elementary,SCHOOL,,,,47174.53866,-122.23056,37.77978,,POINT (-196086.71954635967 -24164.432174410205)
311,1.61E+12,27293472,Melrose Leadership Academy,Elementary,SCHOOL,3,3_3C,Pacific Gas & Electric Company,27980.93437,-122.19798,37.78041,Bay Area,POINT (-193220.27082813234 -24161.337340047583)
312,1.61E+12,349622064,Urban Promise Academy,Middle,SCHOOL,3,3_3C,Pacific Gas & Electric Company,55486.5037,-122.2248,37.78211,Bay Area,POINT (-195574.15511112887 -23917.388595496304)
313,1.61E+12,70215040,Millennium High Alternative,Continuation,SCHOOL,3,3_3C,Pacific Gas & Electric Company,44747.46734,-122.23247,37.82347,Bay Area,POINT (-196140.31363095425 -19304.958084842656)
314,1.61E+12,70215040,Piedmont High,High,SCHOOL,3,3_3C,Pacific Gas & Electric Company,44747.46734,-122.23252,37.82341,Bay Area,POINT (-196144.86462122592 -19311.522767391056)
315,1.61E+12,70267340,Beach Elementary,Elementary,SCHOOL,2,3_3C,Pacific Gas & Electric Company,35020.29546,-122.24619,37.82395,Bay Area,POINT (-197344.7667185413 -19223.129142732825)
316,1.61E+12,70215040,Havens Elementary,Elementary,SCHOOL,3,3_3C,Pacific Gas & Electric Company,44747.46734,-122.23313,37.82539,Bay Area,POINT (-196193.28768029285 -19090.211214253213)
317,1.61E+12,28968812,Wildwood Elementary,Elementary,SCHOOL,2,3_3C,Pacific Gas & Electric Company,36652.16718,-122.23526,37.81977,Bay Area,POINT (-196395.19648909388 -19710.382012609858)
318,1.61E+12,28861405,Piedmont Middle,Middle,SCHOOL,4,3_3C,Pacific Gas & Electric Company,49969.17865,-122.23225,37.82324,Bay Area,POINT (-196121.58187790087 -19330.974623240065)
319,1.61E+12,X,Lincoln High (Continuation),Continuation,SCHOOL,,,,62096.81063,-122.1599,37.70873,,POINT (-190053.3377930054 -32204.643543430604)
320,1.61E+12,382351521,San Leandro High,High,SCHOOL,23,3_3C,Pacific Gas & Electric Company,236259.0133,-122.14149,37.71836,Bay Area,POINT (-188408.77224466784 -31171.15054515237)
321,1.61E+12,313350513,Garfield Elementary,Elementary,SCHOOL,7,3_3C,Pacific Gas & Electric Company,55323.37625,-122.1854,37.70374,Bay Area,POINT (-192310.53636196087 -32707.77247865731)
322,1.61E+12,382346296,Jefferson Elementary,Elementary,SCHOOL,6,3_3C,Pacific Gas & Electric Company,59766.51205,-122.13577,37.71285,Bay Area,POINT (-187919.17745524275 -31794.878155387472)
323,1.61E+12,X,Madison Elementary,Elementary,SCHOOL,,,,56151.35397,-122.16111,37.69568,,POINT (-190192.9033054901 -33652.55736618815)
324,1.61E+12,700762792,McKinley Elementary,Elementary,SCHOOL,8,3_3C,Pacific Gas & Electric Company,47965.61261,-122.14716,37.71928,Bay Area,POINT (-188905.44746863042 -31057.615943348035)
325,1.61E+12,700474942,Monroe Elementary,Elementary,SCHOOL,1,3_3C,Pacific Gas & Electric Company,44267.52282,-122.14608,37.69922,Bay Area,POINT (-188860.87669176774 -33289.1905141552)
326,1.61E+12,118825227,Roosevelt Elementary,Elementary,SCHOOL,10,3_3C,Pacific Gas & Electric Company,47120.10235,-122.1465,37.73591,Bay Area,POINT (-188805.51281339422 -29210.710028795525)
327,1.61E+12,118825251,Washington Elementary,Elementary,SCHOOL,11,3_3C,Pacific Gas & Electric Company,39505.91177,-122.15723,37.73306,Bay Area,POINT (-189756.79781506822 -29506.020508956164)
328,1.61E+12,382345477,Wilson Elementary,Elementary,SCHOOL,9,3_3C,Pacific Gas & Electric Company,55721.33036,-122.16668,37.71595,Bay Area,POINT (-190631.74795830896 -31388.614399761427)
329,1.61E+12,403578769,Bancroft Middle,Middle,SCHOOL,6,3_3C,Pacific Gas & Electric Company,89040.14733,-122.14744,37.72829,Bay Area,POINT (-188907.40386223551 -30055.706674629822)
330,1.61E+12,45285127,John Muir Middle,Middle,SCHOOL,21,3_3C,Pacific Gas & Electric Company,181322.1483,-122.1679,37.71515,Bay Area,POINT (-190741.15091081473 -31475.069262223784)
331,1.61E+12,40325228,KIPP Summit Academy,Middle,SCHOOL,1,3_3C,Pacific Gas & Electric Company,16030.37676,-122.15045,37.67446,Bay Area,POINT (-189307.984997184 -36032.23551346781)
332,1.61E+12,X,East Bay Arts High,Alternative Schools of Choice,SCHOOL,,,,33439.17075,-122.11493,37.66953,,POINT (-186192.41736399767 -36650.518370844424)
333,1.61E+12,40325228,KIPP King Collegiate High,High,SCHOOL,1,3_3C,Pacific Gas & Electric Company,16030.37676,-122.14999,37.67466,Bay Area,POINT (-189266.9746913761 -36010.92687410768)
334,1.61E+12,X,Arroyo High,High,SCHOOL,,,,198817.3804,-122.13882,37.68027,,POINT (-188269.31317643772 -35409.69555975776)
335,1.61E+12,X,Royal Sunset (Continuation),Continuation,SCHOOL,,,,38384.89612,-122.1147,37.66907,,POINT (-186173.303213432 -36702.093943528365)
336,1.61E+12,103386331,San Lorenzo High,High,SCHOOL,34,3_3C,Pacific Gas & Electric Company,279564.4546,-122.12116,37.68845,Bay Area,POINT (-186693.99899428652 -34535.52553702984)
337,1.61E+12,X,Bay Elementary,Elementary,SCHOOL,,,,25357.16464,-122.1473,37.67217,,POINT (-189036.3710569215 -36293.0283007985)
338,1.61E+12,349627863,Bohannon Middle,Middle,SCHOOL,5,3_3C,Pacific Gas & Electric Company,108707.0519,-122.12619,37.67025,Bay Area,POINT (-187182.21462965562 -36548.31646487722)
339,1.61E+12,X,Colonial Acres Elementary,Elementary,SCHOOL,,,,71166.12493,-122.11711,37.68351,,POINT (-186349.6944546221 -35092.52008636622)
340,1.61E+12,X,Corvallis Elementary,Elementary,SCHOOL,,,,56389.62005,-122.15137,37.69737,,POINT (-189331.2104079757 -33484.23914007237)
341,1.61E+12,X,Dayton Elementary,Elementary,SCHOOL,,,,51709.61227,-122.15688,37.68778,,POINT (-189840.50641373527 -34539.023390638176)
342,1.61E+12,X,Del Rey Elementary,Elementary,SCHOOL,,,,42571.57999,-122.13755,37.66797,,POINT (-188188.314888519 -36779.21171449823)
343,1.61E+12,349646430,Edendale Middle,Middle,SCHOOL,6,3_3C,Pacific Gas & Electric Company,118511.361,-122.11723,37.69574,Bay Area,POINT (-186329.90127472786 -33733.06223011948)
344,1.61E+12,X,Grant Elementary,Elementary,SCHOOL,,,,41119.87888,-122.1355,37.68085,,POINT (-187975.53396040972 -35351.82645556331)
345,1.61E+12,103386335,Hesperian Elementary,Elementary,SCHOOL,11,3_3C,Pacific Gas & Electric Company,82417.95048,-122.12449,37.69334,Bay Area,POINT (-186974.9953829729 -33985.494380249176)
346,1.61E+12,349647581,Hillside Elementary,Elementary,SCHOOL,4,3_3C,Pacific Gas & Electric Company,43109.69744,-122.11639,37.70179,Bay Area,POINT (-186240.94181988604 -33062.32614338258)
347,1.61E+12,X,Lorenzo Manor Elementary,Elementary,SCHOOL,,,,55845.04229,-122.11906,37.67477,,POINT (-186543.100187513 -36060.03180612577)
348,1.61E+12,X,Washington Manor Middle,Middle,SCHOOL,,,,65460.72232,-122.14954,37.68812,,POINT (-189193.4273277236 -34515.91565954359)
349,1.75E+12,43985780,John Green Elementary,Elementary,SCHOOL,4,12_3C,Pacific Gas & Electric Company,37775.16663,-121.86254,37.7187,Bay Area,POINT (-163858.0966480661 -31651.84887121385)
350,1.75E+12,233703126,Harold William Kolb,Elementary,SCHOOL,20,12_3C,Pacific Gas & Electric Company,83201.66739,-121.85867,37.71218,Bay Area,POINT (-163531.70390387013 -32383.198439456057)
351,1.75E+12,178497661,Eleanor Murray Fallon,Middle,SCHOOL,16,12_3C,Pacific Gas & Electric Company,122487.8914,-121.86589,37.71569,Bay Area,POINT (-164159.5170572769 -31980.5962692732)
352,1.75E+12,666575394,J. M. Amador Elementary,Elementary,SCHOOL,8,12_3C,Pacific Gas & Electric Company,60948.91487,-121.84304,37.71876,Bay Area,POINT (-162141.75617378752 -31678.723704084754)
353,1.75E+12,31804519,Dublin High,High,SCHOOL,37,12_3C,Pacific Gas & Electric Company,304544.99,-121.92518,37.71957,Bay Area,POINT (-169369.0828331965 -31445.013930900022)
354,1.75E+12,708400090,Cottonwood Creek,Elementary,SCHOOL,8,12_3C,Pacific Gas & Electric Company,69471.30897,-121.84657,37.70926,Bay Area,POINT (-162473.00248082614 -32728.556231357157)
355,1.75E+12,1738626,Dublin Unified Transition Program,Special Education,SCHOOL,9,12_3C,Pacific Gas & Electric Company,50153.51384,-121.92091,37.70974,Bay Area,POINT (-169015.4255865693 -32545.176965013612)
356,1.75E+12,1738626,Valley High (Continuation),Continuation,SCHOOL,9,12_3C,Pacific Gas & Electric Company,50153.51384,-121.92091,37.70974,Bay Area,POINT (-169015.4255865693 -32545.176965013612)
357,1.75E+12,233703125,Dublin Elementary,Elementary,SCHOOL,11,12_3C,Pacific Gas & Electric Company,67745.50016,-121.93606,37.71459,Bay Area,POINT (-170337.91807378535 -31979.004888066556)
358,1.75E+12,1738630,Frederiksen Elementary,Elementary,SCHOOL,20,12_3C,Pacific Gas & Electric Company,72419.53771,-121.92296,37.71523,Bay Area,POINT (-169183.4889248249 -31931.341813523788)
359,1.75E+12,31804539,Murray Elementary,Elementary,SCHOOL,6,12_3B,Pacific Gas & Electric Company,47970.39687,-121.93257,37.72184,Bay Area,POINT (-170014.32126619524 -31179.485098867677)
360,1.75E+12,349649806,Wells Middle,Middle,SCHOOL,6,12_3C,Pacific Gas & Electric Company,103712.4318,-121.91895,37.71184,Bay Area,POINT (-168838.18148746857 -32315.269987058826)
361,1.75E+12,298448800,James Dougherty Elementary,Elementary,SCHOOL,27,12_3C,Pacific Gas & Electric Company,79092.51415,-121.88388,37.70995,Bay Area,POINT (-165755.5661897304 -32587.247925060336)
362,1.75E+12,47390130,Foothill High,High,SCHOOL,24,12_3C,Pacific Gas & Electric Company,226791.9436,-121.91917,37.67316,Bay Area,POINT (-168944.5810339523 -36613.9005213948)
363,1.75E+12,X,Village High,Continuation,SCHOOL,,,,50637.46795,-121.87491,37.65584,,POINT (-165084.96934397388 -38616.917597284075)
364,1.75E+12,43985470,Amador Valley High,High,SCHOOL,35,12_3C,Pacific Gas & Electric Company,262777.0594,-121.87507,37.66835,Bay Area,POINT (-165071.56025721887 -37226.225883129984)
365,1.75E+12,1738284,Donlon Elementary,Elementary,SCHOOL,8,12_3C,Pacific Gas & Electric Company,83115.5768,-121.90804,37.68431,Bay Area,POINT (-167939.4953267713 -35394.43682326097)
366,1.75E+12,349650335,Lydiksen Elementary,Elementary,SCHOOL,9,12_3C,Pacific Gas & Electric Company,91272.39271,-121.92063,37.68074,Bay Area,POINT (-169056.08389209595 -35768.83147377148)
367,1.75E+12,128516367,Alisal Elementary,Elementary,SCHOOL,8,12_3C,Pacific Gas & Electric Company,51568.24098,-121.87079,37.67191,Bay Area,POINT (-164686.81434591985 -36837.99964706879)
368,1.75E+12,1738339,Fairlands Elementary,Elementary,SCHOOL,11,12_3C,Pacific Gas & Electric Company,65019.08008,-121.87398,37.69236,Bay Area,POINT (-164922.8105736901 -34559.55008280929)
369,1.75E+12,X,Valley View Elementary,Elementary,SCHOOL,,,,60095.99072,-121.8622,37.66025,,POINT (-163955.79041324326 -38148.8387859175)
370,1.75E+12,388152882,Walnut Grove Elementary,Elementary,SCHOOL,10,12_3C,Pacific Gas & Electric Company,70329.0871,-121.88551,37.67324,Bay Area,POINT (-165980.1939302463 -36664.49458095804)
371,1.75E+12,349650442,Harvest Park Middle,Middle,SCHOOL,10,12_3C,Pacific Gas & Electric Company,125532.3833,-121.88275,37.67557,Bay Area,POINT (-165731.9952023616 -36410.35997660551)
372,1.75E+12,1745416,Vintage Hills Elementary,Elementary,SCHOOL,8,12_3C,Pacific Gas & Electric Company,59853.72973,-121.8554,37.65547,Bay Area,POINT (-163367.24997204193 -38691.85407980159)
373,1.75E+12,X,Pleasanton Middle,Middle,SCHOOL,,,,108645.6688,-121.8839,37.65471,,POINT (-165879.34054922685 -38726.81058672676)
374,1.75E+12,X,Henry P. Mohr Elementary,Elementary,SCHOOL,,,,74616.75908,-121.86059,37.69205,,POINT (-163744.61210596838 -34617.22643389506)
375,1.75E+12,128575309,Thomas S. Hart Middle,Middle,SCHOOL,15,12_3C,Pacific Gas & Electric Company,85130.95854,-121.89702,37.68576,Bay Area,POINT (-166965.9569429385 -35252.75245149061)
376,1.75E+12,47389511,Phoebe Apperson Hearst Elementary,Elementary,SCHOOL,6,12_3C,Pacific Gas & Electric Company,65700.7798,-121.88549,37.65212,Bay Area,POINT (-166025.12172370398 -39011.88852946134)
377,1.75E+12,79293253,Sunol Glen Elementary,Elementary,SCHOOL,7,12_3C,Pacific Gas & Electric Company,30807.54761,-121.88504,37.59389,Bay Area,POINT (-166114.177500764 -45484.56726462161)
378,1.77E+12,407832146,Latitude 37.8 High,High,SCHOOL,3,3_3C,Pacific Gas & Electric Company,32331.05075,-122.23068,37.77741,Bay Area,POINT (-196103.46963781855 -24427.575509696733)
379,2.61E+12,374490324,Bear Valley Elementary,Elementary,SCHOOL,1,16_6B,Pacific Gas & Electric Company,6692.139519,-120.03871,38.4683,Sierra Nevada,POINT (-3287.21770120542 50067.65939443046)
380,2.61E+12,27562790,Diamond Valley Elementary,Elementary,SCHOOL,6,16_6B,Pacific Gas & Electric Company,35049.655,-119.80933,38.7665,Sierra Nevada,POINT (16636.280134448167 83230.6003074199)
381,3.10E+12,X,County Community,County Community,SCHOOL,,,,10679.47127,-120.809,38.37748,,POINT (-70502.2619693677 40272.48049606802)
382,3.10E+12,X,Amador County Special Education,Special Education,SCHOOL,,,,8272.344421,-120.7777,38.35257,,POINT (-67793.98555745857 37480.66221087426)
383,3.74E+12,X,Independence High (Continuation),Continuation,SCHOOL,,,,48131.56074,-120.80882,38.37758,,POINT (-70486.4618077624 40283.46225989936)
384,3.74E+12,X,North Star Independent Study,Alternative Schools of Choice,SCHOOL,,,,20048.57849,-120.809,38.37748,,POINT (-70502.2619693677 40272.48049606802)
385,3.74E+12,X,Amador High,High,SCHOOL,,,,87739.29492,-120.81179,38.39814,,POINT (-70726.03008267538 42571.0858783056)
386,3.74E+12,X,Argonaut High,High,SCHOOL,,,,55203.78055,-120.79283,38.35621,,POINT (-69111.16901063817 37896.218558063265)
387,3.74E+12,393299987,Ione Elementary,Elementary,SCHOOL,34,12_4B,Pacific Gas & Electric Company,45932.01158,-120.93078,38.34942,Sierra Nevada,POINT (-81158.37117576392 37250.90833899379)
388,3.74E+12,883059873,Jackson Elementary,Elementary,SCHOOL,7,12_4B,Pacific Gas & Electric Company,45422.99346,-120.77285,38.35065,Sierra Nevada,POINT (-67372.4104145726 37263.775189660955)
389,3.74E+12,X,Pine Grove Elementary STEM Magnet,Elementary,SCHOOL,,,,55823.9151,-120.65356,38.41304,,POINT (-56912.47410489388 44120.68789352244)
390,3.74E+12,X,Pioneer Magnet School for the Visual and Performing Arts,Elementary,SCHOOL,,,,35579.08039,-120.57089,38.43241,,POINT (-49689.72134987569 46227.28564695502)
391,3.74E+12,X,Plymouth Elementary,Elementary,SCHOOL,,,,82033.39851,-120.85236,38.47964,,POINT (-74183.40257497012 51661.41099721473)
392,3.74E+12,X,Sutter Creek Elementary,Elementary,SCHOOL,,,,53290.68932,-120.81093,38.39916,,POINT (-70650.04435096424 42683.82483470347)
393,3.74E+12,X,Jackson Junior High,Middle,SCHOOL,,,,61933.17396,-120.77868,38.35293,,POINT (-67879.19262442396 37521.38152297167)
394,3.74E+12,393297931,Ione Junior High,Middle,SCHOOL,20,12_4B,Pacific Gas & Electric Company,67692.11319,-120.93528,38.348,Sierra Nevada,POINT (-81552.70569566879 37096.93059643917)
395,4.10E+12,X,CORE Butte Charter,K-12,SCHOOL,,,,165642.5288,-121.85197,39.75384,,POINT (-158509.45855732015 194487.7563064471)
396,4.10E+12,X,Butte County Community,County Community,SCHOOL,,,,13740.64165,-121.835876,39.728198,,POINT (-157186.56677269907 191612.5217224746)
397,4.10E+12,X,Come Back Butte Charter,High,SCHOOL,,,,17535.37559,-121.553401,39.505353,,POINT (-133395.99844978834 166422.26329639088)
398,4.10E+12,X,BASES Learning Center,Special Education,SCHOOL,,,,17237.88139,-121.54594,39.512927,,POINT (-132741.21500696611 167253.2929085549)
399,4.10E+12,X,Table Mountain,Juvenile Court,SCHOOL,,,,22718.87221,-121.57004,39.52978,,POINT (-134780.69417672657 169159.75431006076)
400,4.10E+12,X,Hearthstone,K-12,SCHOOL,,,,15217.22592,-121.5782,39.52648,,POINT (-135487.68082803604 168804.7519212421)
401,4.10E+12,X,Butte County Special Education,Special Education,SCHOOL,,,,23724.15266,-121.55658,39.51233,,POINT (-133656.41406686913 167201.92200895073)
402,4.61E+12,X,Bangor Elementary,Elementary,SCHOOL,,,,40393.7245,-121.40753,39.39081,,POINT (-121051.36744030377 153499.539267987)
403,4.61E+12,951425104,Biggs High,High,SCHOOL,6,11_3B,Pacific Gas & Electric Company,52910.23254,-121.70606,39.4161,Central Valley,POINT (-146690.96732649236 156731.34908485645)
404,4.61E+12,X,Biggs Elementary,Elementary,SCHOOL,,,,63761.76146,-121.70346,39.41593,,POINT (-146467.6451853665 156708.43861524947)
405,4.61E+12,X,Richvale Elementary,Elementary,SCHOOL,,,,75157.11164,-121.74867,39.49535,,POINT (-150193.99539433297 165603.12628034176)
406,4.61E+12,X,Nord Country,Elementary,SCHOOL,,,,64100.786,-121.95526,39.78077,,POINT (-167291.90823496625 197656.7462009145)
407,4.61E+12,84968698,Academy for Change,Community Day,SCHOOL,1,11_3B,Pacific Gas & Electric Company,6413.557805,-121.85842,39.75938,Central Valley,POINT (-159049.67715168974 195113.96447236184)
408,4.61E+12,X,Forest Ranch Charter,Elementary,SCHOOL,,,,23821.67871,-121.66697,39.88466,,POINT (-142412.92486501133 208725.58397911303)
409,4.61E+12,127243699,Inspire School of Arts and Sciences,High,SCHOOL,10,11_3B,Pacific Gas & Electric Company,203611.5854,-121.84759,39.73464,Central Valley,POINT (-158175.9891123564 192347.62478957977)
410,4.61E+12,85465948,Sherwood Montessori,Elementary,SCHOOL,9,11_3B,Pacific Gas & Electric Company,56644.5453,-121.81584,39.72748,Central Valley,POINT (-155471.89280830894 191499.7056832011)
411,4.61E+12,X,Wildflower Open Classroom,Elementary,SCHOOL,,,,12964.65789,-121.84204,39.75838,,POINT (-157649.39743491795 194975.5077013094)
412,4.61E+12,84968698,Center for Alternative Learning,Opportunity,SCHOOL,1,11_3B,Pacific Gas & Electric Company,6413.557805,-121.85842,39.75938,Central Valley,POINT (-159049.67715168974 195113.96447236184)
413,4.61E+12,X,Pivot Charter School North Valley II,K-12,SCHOOL,,,,20100.04455,-121.82143,39.73481,,POINT (-155935.06906774433 192323.14845449151)
414,4.61E+12,84968698,Oakdale,Alternative Schools of Choice,SCHOOL,1,11_3B,Pacific Gas & Electric Company,6413.557805,-121.85842,39.75938,Central Valley,POINT (-159049.67715168974 195113.96447236184)
415,4.61E+12,84969479,Loma Vista,Special Education,SCHOOL,3,11_3B,Pacific Gas & Electric Company,18090.2693,-121.81386,39.75979,Central Valley,POINT (-155233.6144340555 195085.60896945558)
416,4.61E+12,84968698,Fair View High (Continuation),Continuation,SCHOOL,1,11_3B,Pacific Gas & Electric Company,6413.557805,-121.85842,39.75938,Central Valley,POINT (-159049.67715168974 195113.96447236184)
417,4.61E+12,127243699,Chico High,High,SCHOOL,10,11_3B,Pacific Gas & Electric Company,203611.5854,-121.84495,39.73564,Central Valley,POINT (-157947.7163991565 192454.30564705376)
418,4.61E+12,84969018,Pleasant Valley High,High,SCHOOL,15,11_3B,Pacific Gas & Electric Company,215024.7139,-121.81633,39.76074,Central Valley,POINT (-155443.0715552452 195195.1877128398)
419,4.61E+12,85465948,Chapman Elementary,Elementary,SCHOOL,9,11_3B,Pacific Gas & Electric Company,56644.5453,-121.81489,39.72698,Central Valley,POINT (-155391.58213923444 191442.6042848318)
420,4.61E+12,28551317,Citrus Avenue Elementary,Elementary,SCHOOL,1,11_3B,Pacific Gas & Electric Company,23780.14553,-121.85214,39.73877,Central Valley,POINT (-158556.7232967587 192814.00827967748)
421,4.61E+12,X,Hooker Oak Elementary,Alternative Schools of Choice,SCHOOL,,,,27966.28786,-121.8371,39.74368,,POINT (-157258.07932001073 193334.36779474327)
422,4.61E+12,X,McManus (John A.) Elementary,Elementary,SCHOOL,,,,38131.55734,-121.83943,39.76161,,POINT (-157418.9661696958 195329.96688265447)
423,4.61E+12,84969479,Marigold Elementary,Elementary,SCHOOL,3,11_3B,Pacific Gas & Electric Company,18090.2693,-121.81454,39.76058,Central Valley,POINT (-155290.15564023086 195174.47926582955)
424,4.61E+12,X,Neal Dow Elementary,Elementary,SCHOOL,,,,38828.49635,-121.83229,39.74943,,POINT (-156833.81615288067 193965.12949575996)
425,4.61E+12,85243499,Parkview Elementary,Elementary,SCHOOL,3,11_3B,Pacific Gas & Electric Company,4756.764162,-121.81347,39.74204,Central Valley,POINT (-155237.94386697892 193113.22303865477)
426,4.61E+12,85318806,Rosedale Elementary,Elementary,SCHOOL,7,11_3B,Pacific Gas & Electric Company,43663.48697,-121.85203,39.72357,Central Valley,POINT (-158580.2914961248 191125.3355756458)
427,4.61E+12,186727461,Shasta Elementary,Elementary,SCHOOL,3,11_3B,Pacific Gas & Electric Company,35835.04196,-121.88311,39.77985,Central Valley,POINT (-161118.42906931535 197429.52139919065)
428,4.61E+12,X,Sierra View Elementary,Alternative Schools of Choice,SCHOOL,,,,56526.21692,-121.8122,39.75084,,POINT (-155110.49316318324 194088.68809914868)
429,4.61E+12,X,Bidwell Junior High,Middle,SCHOOL,,,,146680.9694,-121.83767,39.75871,,POINT (-157274.52602617192 195004.90306808148)
430,4.61E+12,460975283,Chico Junior High,Middle,SCHOOL,2,11_3B,Pacific Gas & Electric Company,145080.8964,-121.83904,39.73418,Central Valley,POINT (-157444.68962729428 192282.2859768155)
431,4.61E+12,X,Little Chico Creek Elementary,Elementary,SCHOOL,,,,51309.36012,-121.79806,39.73375,,POINT (-153935.6986287907 192167.18414035486)
432,4.61E+12,545148263,Emma Wilson Elementary,Elementary,SCHOOL,7,11_3B,Pacific Gas & Electric Company,68290.97041,-121.87041,39.73394,Central Valley,POINT (-160132.00569811132 192308.1955079916)
433,4.61E+12,X,Chico Country Day,Elementary,SCHOOL,,,,63907.00401,-121.83319,39.72384,,POINT (-156965.8575132599 191123.9584015971)
434,4.61E+12,301850353,Marsh (Harry M.) Junior High,Middle,SCHOOL,8,11_3B,Pacific Gas & Electric Company,69767.81218,-121.79828,39.73903,Central Valley,POINT (-153943.4148424426 192754.07374766236)
435,4.61E+12,X,Blue Oak Charter,Elementary,SCHOOL,,,,63758.27668,-121.86898,39.75335,,POINT (-159967.01734221063 194461.91166066006)
436,4.61E+12,X,Durham High,High,SCHOOL,,,,29131.1962,-121.80272,39.6481,,POINT (-154515.77075342723 182660.03317453805)
437,4.61E+12,X,Durham Elementary,Elementary,SCHOOL,,,,27942.33334,-121.80465,39.64672,,POINT (-154684.1871341688 182509.87619152898)
438,4.61E+12,X,Durham Intermediate,Middle,SCHOOL,,,,57402.69593,-121.80202,39.64751,,POINT (-154456.99163648344 182593.34801754216)
439,4.61E+12,X,Concow Elementary,Elementary,SCHOOL,,,,23724.15266,-121.562716,39.651743,,POINT (-133928.24469007822 182699.42365869274)
440,4.62E+12,X,Manzanita Elementary,Elementary,SCHOOL,,,,47174.53866,-121.65856,39.33476,,POINT (-142762.95055594717 147621.13059086492)
441,4.62E+12,X,Ishi Hills Middle,Middle,SCHOOL,,,,37130.89019,-121.52813,39.50627,,POINT (-131223.03110394426 166488.85568983434)
442,4.62E+12,X,Ipakanni Early College Charter,K-12,SCHOOL,,,,12277.88675,-121.55316,39.51331,,POINT (-133360.80684101844 167305.9852418932)
443,4.62E+12,X,STREAM Charter,Elementary,SCHOOL,,,,55793.10188,-121.57073,39.49759,,POINT (-134899.21989499056 165584.29021605477)
444,4.62E+12,X,Central Middle,Middle,SCHOOL,,,,41766.14559,-121.54345,39.50329,,POINT (-132544.7255967291 166179.0871478771)
445,4.62E+12,X,Oakdale Heights Elementary,Elementary,SCHOOL,,,,53433.15231,-121.54548,39.47977,,POINT (-132761.75461067486 163568.71536736842)
446,4.62E+12,X,Ophir Elementary,Elementary,SCHOOL,,,,48350.38652,-121.49436,39.49839,,POINT (-128335.28150048204 165567.0812802394)
447,4.62E+12,X,Stanford Avenue Elementary,Elementary,SCHOOL,,,,92416.4401,-121.53504,39.51413,,POINT (-131802.6018693442 167371.73440892156)
448,4.62E+12,474576147,Wyandotte Academy,Elementary,SCHOOL,11,11_3B,Pacific Gas & Electric Company,80091.40916,-121.54174,39.50109,Central Valley,POINT (-132401.77088938814 165932.26414087648)
449,4.62E+12,X,Oroville High Community Day,Community Day,SCHOOL,,,,53895.71195,-121.56899,39.52226,,POINT (-134704.33543947153 168322.76226591552)
450,4.62E+12,X,Las Plumas High,High,SCHOOL,,,,164967.6003,-121.53764,39.47987,,POINT (-132087.71398265506 163568.86796073476)
451,4.62E+12,X,Oroville High,High,SCHOOL,,,,101081.3174,-121.54522,39.51437,,POINT (-132676.74457724357 167412.60853027273)
452,4.62E+12,X,Prospect High (Continuation),Continuation,SCHOOL,,,,5317.225836,-121.56808,39.52149,,POINT (-134627.5803785718 168235.91885775095)
453,4.62E+12,X,Golden Hills Elementary,Elementary,SCHOOL,,,,40123.97575,-121.53409,39.47338,,POINT (-131794.25531182284 162842.83938383125)
454,4.62E+12,X,Helen M. Wilcox Elementary,Elementary,SCHOOL,,,,57071.16641,-121.53512,39.47524,,POINT (-131879.44668555437 163050.9320618757)
455,4.62E+12,X,Palermo,Middle,SCHOOL,,,,73410.37789,-121.54679,39.43688,,POINT (-132952.10784654866 158805.13488687854)
456,4.62E+12,X,Honcut,Elementary,SCHOOL,,,,33157.82417,-121.53539,39.32877,,POINT (-132166.24573560694 146776.85457784496)
457,4.62E+12,X,Palermo Union Community Day (K-8),Community Day,SCHOOL,,,,41254.77284,-121.54678,39.43665,,POINT (-132951.66486145704 158779.56575692818)
458,4.62E+12,84969479,Achieve Charter School of Paradise Inc.,Elementary,SCHOOL,3,11_3B,Pacific Gas & Electric Company,18090.2693,-121.81566,39.761652,Central Valley,POINT (-155383.76713602245 195295.39710007887)
459,4.62E+12,X,Paradise eLearning Academy,K-12,SCHOOL,,,,37400.0023,-121.61296,39.76218,,POINT (-138027.88434955382 195040.19790258538)
460,4.62E+12,602152529,Paradise Ridge Elementary,Elementary,SCHOOL,14,11_3B,Pacific Gas & Electric Company,85918.15734,-121.613196,39.75098,Central Valley,POINT (-138069.2636297406 193796.3539608335)
461,4.62E+12,X,Ridgeview High (Continuation),Continuation,SCHOOL,,,,48131.56074,-121.57942,39.804727,,POINT (-135077.44717709202 199718.26408217102)
462,4.62E+12,X,Paradise Senior High,High,SCHOOL,,,,57900.01382,-121.61358,39.76122,,POINT (-138082.78368057116 194934.45693111606)
463,4.62E+12,602152529,Paradise Intermediate,Middle,SCHOOL,14,11_3B,Pacific Gas & Electric Company,85918.15734,-121.6132052,39.7509789,Central Valley,POINT (-138070.05462786916 193796.2456616629)
464,4.62E+12,X,Pine Ridge,Elementary,SCHOOL,,,,64100.786,-121.60051,39.81287,,POINT (-136866.84764366646 200653.09721778706)
465,4.62E+12,X,HomeTech Charter,K-12,SCHOOL,,,,30563.39936,-121.6266,39.75649,,POINT (-139206.5799234301 194428.06378135178)
466,4.62E+12,X,Paradise Charter Middle,Middle,SCHOOL,,,,65578.31532,-121.596745,39.772999,,POINT (-136619.31678880713 196218.55280233733)
467,4.62E+12,657363284,Cedarwood Elementary,Elementary,SCHOOL,12,11_3B,Pacific Gas & Electric Company,44726.36732,-121.59697,39.85374,Central Valley,POINT (-136487.4816361984 205187.9614151977)
468,4.62E+12,X,Children's Community Charter,Elementary,SCHOOL,,,,12182.26433,-121.578704,39.78413601,,POINT (-135054.27199648225 197429.8663976686)
469,4.62E+12,X,Plumas Avenue Elementary,Elementary,SCHOOL,,,,53433.15231,-121.57572,39.52035,,POINT (-135285.97871421854 168120.1431798865)
470,4.62E+12,X,Nelson Avenue Middle,Middle,SCHOOL,,,,58006.44046,-121.57944,39.52582,,POINT (-135595.4140020866 168733.19758418715)
471,4.62E+12,X,Poplar Avenue Elementary,Elementary,SCHOOL,,,,52425.14154,-121.61128,39.5126,,POINT (-138355.33378614485 167310.44178351667)
472,4.62E+12,X,Sierra Avenue Elementary,Elementary,SCHOOL,,,,63712.53994,-121.5891,39.50918,,POINT (-136456.1702081401 166898.299853676)
473,4.62E+12,X,Heritage Community Day,Community Day,SCHOOL,,,,27707.98854,-121.5794133,39.52580515,,POINT (-135593.1485086458 168731.50958743365)
474,4.73E+12,X,Berry Creek Elementary,Elementary,SCHOOL,,,,73087.69546,-121.4943633,39.49838955,,POINT (-128335.56789975474 165567.0360805355)
475,4.76E+12,X,Esperanza High (Continuation),Continuation,SCHOOL,,,,65165.50132,-121.6933139,39.36519966,,POINT (-145695.5231783991 151056.22063036961)
476,4.76E+12,X,Gridley High,High,SCHOOL,,,,95631.76437,-121.68391,39.36792,,POINT (-144880.63192382993 151344.05777645297)
477,4.76E+12,X,McKinley Elementary,Elementary,SCHOOL,,,,20793.15228,-121.69797,39.36294,,POINT (-146100.8328137649 150812.3193273791)
478,4.76E+12,X,Sycamore Middle,Middle,SCHOOL,,,,67165.9603,-121.69962,39.36236,,POINT (-146244.03029564262 150750.42097826116)
479,4.76E+12,X,Wilson Elementary,Elementary,SCHOOL,,,,20907.71876,-121.69106,39.36262,,POINT (-145506.6119930671 150766.13070970168)
480,5.10E+12,954113498,Calaveras River Academy,County Community,SCHOOL,2,12_4B,Pacific Gas & Electric Company,50429.81855,-120.69182,38.18941,Sierra Nevada,POINT (-60430.58199547956 19285.5515267374)
481,5.10E+12,954113498,Mountain Oaks,K-12,SCHOOL,2,12_4B,Pacific Gas & Electric Company,50429.81855,-120.69223,38.18903,Sierra Nevada,POINT (-60466.754509271384 19243.57175587071)
482,5.10E+12,X,Calaveras County Special Education (SELPA),Special Education,SCHOOL,,,,33668.22726,-120.55522,38.0809,,POINT (-48552.30728468796 7144.608910751529)
483,5.10E+12,X,Oakendell Community,County Community,SCHOOL,,,,33668.22726,-120.65646,38.23464,,POINT (-57302.70544113479 24291.41402017465)
484,5.62E+12,752695639,Vallecito Continuation High,Continuation,SCHOOL,26,12_4B,Pacific Gas & Electric Company,155456.4075,-120.55239,38.07996,Sierra Nevada,POINT (-48305.00406074027 7038.666550914757)
485,5.62E+12,752695639,Bret Harte Union High,High,SCHOOL,26,12_4B,Pacific Gas & Electric Company,155456.4075,-120.55246,38.07903,Sierra Nevada,POINT (-48311.73876184554 6935.319747716188)
486,5.62E+12,44388890,Gold Strike High,Continuation,SCHOOL,72,12_4B,Pacific Gas & Electric Company,171119.2922,-120.684169,38.200545,Sierra Nevada,POINT (-59752.3905160082 20518.483039314393)
487,5.62E+12,X,Calaveras Unified Alternative-Sierra Hills Education Center,Alternative Schools of Choice,SCHOOL,,,,41121.1844,-120.68042,38.20281,,POINT (-59422.6945298429 20767.905038406607)
488,5.62E+12,44388890,Calaveras High,High,SCHOOL,72,12_4B,Pacific Gas & Electric Company,171119.2922,-120.68435,38.19983,Sierra Nevada,POINT (-59768.794589858655 20439.116569127887)
489,5.62E+12,958286099,Mokelumne Hill Elementary,Elementary,SCHOOL,6,12_4B,Pacific Gas & Electric Company,24993.86071,-120.69796,38.29905,Sierra Nevada,POINT (-60877.94046692844 31477.20676179044)
490,5.62E+12,961484407,San Andreas Elementary,Elementary,SCHOOL,11,12_4B,Pacific Gas & Electric Company,47063.98424,-120.67702,38.19901,Sierra Nevada,POINT (-59128.35489566848 20343.360760333948)
491,5.62E+12,X,Valley Springs Elementary,Elementary,SCHOOL,,,,51586.48303,-120.83288,38.19073,,POINT (-72768.21197043113 19531.505594881717)
492,5.62E+12,X,West Point Elementary,Elementary,SCHOOL,,,,67582.42936,-120.52611,38.39814,,POINT (-45806.525197566974 42395.24767398648)
493,5.62E+12,751747179,Toyon Middle,Middle,SCHOOL,14,12_4B,Pacific Gas & Electric Company,50171.35265,-120.7566,38.21307,Sierra Nevada,POINT (-66076.10111102481 21958.913558613975)
494,5.62E+12,X,Jenny Lind Elementary,Elementary,SCHOOL,,,,32808.53068,-120.86593,38.13437,,POINT (-75716.34009549205 13292.398099869024)
495,5.62E+12,X,Copperopolis Elementary,Elementary,SCHOOL,,,,31962.98067,-120.64117,37.98197,,POINT (-56156.003154743026 -3805.3013148820028)
496,5.62E+12,X,Mark Twain Elementary,Elementary,SCHOOL,,,,73410.37789,-120.5509,38.07516,,POINT (-48177.57699722058 6504.319644711446)
497,5.62E+12,X,Hazel Fischer Elementary,Elementary,SCHOOL,,,,24878.24172,-120.3427,38.26403,,POINT (-29861.56090009561 27413.964239867404)
498,5.62E+12,X,Albert A. Michelson Elementary,Elementary,SCHOOL,,,,49125.97478,-120.45436,38.13309,,POINT (-39688.99870125779 12899.233833637554)
499,5.62E+12,X,Avery Middle,Middle,SCHOOL,,,,46064.64059,-120.36484,38.20351,,POINT (-31822.212405020604 20693.56509666983)
500,5.62E+12,X,Home School Academy (Alternative),Alternative Schools of Choice,SCHOOL,,,,38240.72147,-120.454354,38.133107,,POINT (-39688.464402262915 12901.121128062718)
501,6.10E+12,X,Coastal Buttes,Special Education,SCHOOL,,,,8272.344421,-122.13678,39.16037,,POINT (-184381.9091689622 129069.88159686001)
502,6.10E+12,X,S. William Abel Academy,County Community,SCHOOL,,,,2747.715859,-122.13678,39.16037,,POINT (-184381.9091689622 129069.88159686001)
503,6.62E+12,495574391,Colusa Alternative High (Continuation),Continuation,SCHOOL,41,11_3B,Pacific Gas & Electric Company,90888.68436,-122.01854,39.20062,Central Valley,POINT (-174080.60025190134 133318.42713934695)
504,6.62E+12,495574391,Colusa Alternative Home,Alternative Schools of Choice,SCHOOL,41,11_3B,Pacific Gas & Electric Company,90888.68436,-122.01951,39.200208,Central Valley,POINT (-174165.2580714917 133274.4319018433)
505,6.62E+12,495574391,Colusa High,High,SCHOOL,41,11_3B,Pacific Gas & Electric Company,90888.68436,-122.01951,39.20021,Central Valley,POINT (-174165.2532714131 133274.65410124464)
506,6.62E+12,143484120,James M. Burchfield Primary,Elementary,SCHOOL,17,11_3B,Pacific Gas & Electric Company,66196.06842,-122.00874,39.20804,Central Valley,POINT (-173217.6767175202 134124.9096338395)
507,6.62E+12,841587231,George T. Egling Middle,Middle,SCHOOL,9,11_3B,Pacific Gas & Electric Company,62903.92226,-122.01463,39.21014,Central Valley,POINT (-173720.8010994146 134369.0242622858)
508,6.62E+12,X,Maxwell Middle,Middle,SCHOOL,,,,21188.01263,-122.19322,39.28017,,POINT (-188945.54473653765 142491.55975375976)
509,6.62E+12,X,Maxwell Sr High,High,SCHOOL,,,,5563.483568,-122.19979,39.27558,,POINT (-189523.54113099887 141994.71948182117)
510,6.62E+12,X,Maxwell Elementary,Elementary,SCHOOL,,,,54162.16181,-122.19322,39.28017,,POINT (-188945.54473653765 142491.55975375976)
511,6.62E+12,939097664,Arbuckle Alternative High (Continuation),Continuation,SCHOOL,1,11_3B,Pacific Gas & Electric Company,18440.07219,-122.0555,39.01002,Central Valley,POINT (-177728.3879649088 112208.60699512949)
512,6.62E+12,939097664,Pierce High,High,SCHOOL,1,11_3B,Pacific Gas & Electric Company,18440.07219,-122.05551,39.01019,Central Valley,POINT (-177728.84325565878 112227.5158456983)
513,6.62E+12,X,Arbuckle Elementary,Elementary,SCHOOL,,,,43330.34242,-122.06025,39.01592,,POINT (-178124.9816354245 112873.12144782953)
514,6.62E+12,X,Grand Island Elementary,Elementary,SCHOOL,,,,65165.50132,-121.89684,39.06955,,POINT (-163872.75777213773 118537.53187661571)
515,6.62E+12,X,Lloyd G. Johnson Junior High,Middle,SCHOOL,,,,63152.79386,-122.05456,39.00795,,POINT (-177652.06974646452 111976.82986590872)
516,6.62E+12,X,Williams Upper Elementary,Elementary,SCHOOL,,,,34361.25304,-122.15694,39.15519,,POINT (-186135.12009167037 128533.74734115042)
517,6.62E+12,X,Mid Valley High (Continuation),Continuation,SCHOOL,,,,19704.59905,-122.1562,39.15502,,POINT (-186071.6721506647 128513.40546038887)
518,6.62E+12,X,Williams Junior/Senior High,High,SCHOOL,,,,58365.41031,-122.156951,39.155192,,POINT (-186136.06458933972 128533.99114102079)
519,6.62E+12,X,Williams Primary Elementary,Elementary,SCHOOL,,,,14222.72483,-122.15958,39.15323,,POINT (-186367.9691440804 128321.16192211444)
520,7.10E+12,189008764,Central County Special Education Programs,Special Education,SCHOOL,8,12_3B,Pacific Gas & Electric Company,39794.01228,-122.01991,37.859359,Bay Area,POINT (-177374.98193886506 -15735.206471909303)
521,7.10E+12,31298330,CCCOE Special Education Programs,Special Education,SCHOOL,2,12_3B,Pacific Gas & Electric Company,50825.1508,-121.851,38.00244,Bay Area,POINT (-162226.66770573906 -135.3645188594237)
522,7.10E+12,X,Making Waves Academy,K-12,SCHOOL,,,,114913.0699,-122.33271,37.9887,,POINT (-204497.44190442507 -730.333935551811)
523,7.10E+12,X,Mt. McKinley,Juvenile Court,SCHOOL,,,,73087.69546,-122.08805,37.98823,,POINT (-183045.04714316255 -1282.8364347685128)
524,7.10E+12,652539510,Caliber: Beta Academy,Elementary,SCHOOL,35,3_3B,Pacific Gas & Electric Company,49088.08939,-122.32902,37.92327,Bay Area,POINT (-204352.5495117675 -8009.72193592228)
525,7.10E+12,X,Summit Public School K2,High,SCHOOL,,,,40875.41969,-122.31252,37.92562,,POINT (-202898.11393794813 -7784.011938658077)
526,7.10E+12,268810822,Contra Costa School of Performing Arts,K-12,SCHOOL,1,12_3B,Pacific Gas & Electric Company,45094.65966,-122.02456,37.9303,Bay Area,POINT (-177615.05723024055 -7842.018540845718)
527,7.10E+12,X,Invictus Academy of Richmond,High,SCHOOL,,,,26729.56814,-122.30763,37.98561,,POINT (-202306.6677346151 -1127.5652815871872)
528,7.10E+12,X,Golden Gate Community,County Community,SCHOOL,,,,16796.68677,-121.8743232,38.003837,,POINT (-164268.5256687808 60.086377390194684)
529,7.10E+12,31279251,Clayton Valley Charter High,High,SCHOOL,1,12_3B,Pacific Gas & Electric Company,205920.6084,-121.96905,37.9497,Bay Area,POINT (-172698.70958586127 -5788.470561793074)
530,7.10E+12,31587137,Floyd I. Marchus,Special Education,SCHOOL,1,12_3B,Pacific Gas & Electric Company,73370.03061,-122.04682,37.99498,Bay Area,POINT (-179413.35940456355 -611.4922471204773)
531,7.10E+12,X,Manzanita Middle,Middle,SCHOOL,,,,64196.75314,-122.33756,37.93661,,POINT (-205065.47013429625 -6508.761226107366)
532,7.62E+12,X,Acalanes Center for Independent Study,Alternative Schools of Choice,SCHOOL,,,,17272.69512,-122.07546,37.87626,,POINT (-182213.48972542872 -13751.42090025125)
533,7.62E+12,31320691,Acalanes High,High,SCHOOL,23,12_3B,Pacific Gas & Electric Company,194149.8122,-122.0966,37.90328,Bay Area,POINT (-184003.61926974313 -10707.576863784343)
534,7.62E+12,7397566,Campolindo High,High,SCHOOL,18,12_3B,Pacific Gas & Electric Company,207086.5432,-122.127,37.86727,Bay Area,POINT (-186762.21904290363 -14650.224127514288)
535,7.62E+12,31317628,Las Lomas High,High,SCHOOL,5,12_3B,Pacific Gas & Electric Company,195789.9534,-122.0551,37.891,Bay Area,POINT (-180389.91690425243 -12152.166582652368)
536,7.62E+12,31544130,Miramonte High,High,SCHOOL,17,12_3B,Pacific Gas & Electric Company,213480.1135,-122.1461,37.841,Bay Area,POINT (-188505.89353843685 -17532.012046007905)
537,7.62E+12,271403973,Lone Tree Elementary,Elementary,SCHOOL,9,12_3B,Pacific Gas & Electric Company,66864.39318,-121.78906,37.96257,Bay Area,POINT (-156879.47764323966 -4671.050485857297)
538,7.62E+12,31551423,Dallas Ranch Middle,Middle,SCHOOL,2,12_3B,Pacific Gas & Electric Company,91232.3906,-121.79813,37.96851,Bay Area,POINT (-157662.62914297832 -3995.78556341026)
539,7.62E+12,292031477,Carmen Dragon Elementary,Elementary,SCHOOL,1,12_3B,Pacific Gas & Electric Company,48277.39949,-121.75349,37.96593,Bay Area,POINT (-153752.14315825675 -4355.900249533355)
540,7.62E+12,X,Bidwell Continuation High,Continuation,SCHOOL,,,,36037.84514,-121.79214,37.9999,,POINT (-157071.2343932497 -516.8446928970516)
541,7.62E+12,963327160,Orchard Park,Elementary,SCHOOL,15,12_3B,Pacific Gas & Electric Company,58292.7891,-121.74049,38.00019,Bay Area,POINT (-152541.83216506723 -568.9959672656842)
542,7.62E+12,X,Antioch Charter Academy II,Elementary,SCHOOL,,,,20159.09607,-121.82098,38.01099,,POINT (-159576.3050299622 763.9540818179958)
543,7.62E+12,X,Dozier-Libbey Medical High,Alternative Schools of Choice,SCHOOL,,,,64478.87245,-121.76842,37.94836,,POINT (-155098.27180588312 -6284.427186967805)
544,7.62E+12,X,Rocketship Delta Prep,Elementary,SCHOOL,,,,85172.15252,-121.79726,38.00583,,POINT (-157507.6713252957 150.75267008552328)
545,7.62E+12,31583869,Live Oak High (Continuation),Continuation,SCHOOL,1,12_3B,Pacific Gas & Electric Company,11845.74268,-121.81308,38.00551,Bay Area,POINT (-158895.37087857834 141.5985368359834)
546,7.62E+12,X,Prospects High (Alternative),Alternative Schools of Choice,SCHOOL,,,,24725.56972,-121.81617,38.01713,,POINT (-159141.54366068463 1438.3002139828168)
547,7.62E+12,31528158,Deer Valley High,High,SCHOOL,5,12_3B,Pacific Gas & Electric Company,248594.0552,-121.77516,37.9636,Bay Area,POINT (-155657.9400810926 -4579.492913721595)
548,7.62E+12,31516213,Antioch High,High,SCHOOL,12,12_3B,Pacific Gas & Electric Company,230708.4949,-121.8163,38.00628,Bay Area,POINT (-159176.04548625465 232.5853688083589)
549,7.62E+12,X,Belshaw Elementary,Elementary,SCHOOL,,,,49398.37361,-121.80049,37.99561,,POINT (-157812.43678207308 -979.7888018717058)
550,7.62E+12,31583964,Fremont Elementary,Elementary,SCHOOL,2,12_3B,Pacific Gas & Electric Company,49355.79766,-121.81156,38.00786,Bay Area,POINT (-158757.1129675515 400.24392759101465)
551,7.62E+12,31540470,Kimball Elementary,Elementary,SCHOOL,1,12_3B,Pacific Gas & Electric Company,68574.25834,-121.80174,38.00762,Bay Area,POINT (-157896.67465080958 357.1607270510867)
552,7.62E+12,31516227,Marsh Elementary,Elementary,SCHOOL,7,12_3B,Pacific Gas & Electric Company,58434.40473,-121.81622,37.99986,Bay Area,POINT (-159182.70269218885 -481.10616760654375)
553,7.62E+12,X,Sutter Elementary,Elementary,SCHOOL,,,,65366.8271,-121.81271,37.98501,,POINT (-158906.50083680986 -2137.5163140287623)
554,7.62E+12,31298330,Turner Elementary,Elementary,SCHOOL,2,12_3B,Pacific Gas & Electric Company,50825.1508,-121.85092,38.00249,Bay Area,POINT (-162219.54492196708 -129.9441347224638)
555,7.62E+12,31583931,Antioch Middle,Middle,SCHOOL,1,12_3B,Pacific Gas & Electric Company,7236.157821,-121.81106,38.00667,Bay Area,POINT (-158715.80359008064 267.1425647865981)
556,7.62E+12,31530517,Park Middle,Middle,SCHOOL,1,12_3B,Pacific Gas & Electric Company,111483.4935,-121.81347,37.99309,Bay Area,POINT (-158955.97226700597 -1238.181248081848)
557,7.62E+12,31530054,Mission Elementary,Elementary,SCHOOL,4,12_3B,Pacific Gas & Electric Company,61172.39251,-121.8323,37.99685,Bay Area,POINT (-160599.0911323233 -788.5217185006477)
558,7.62E+12,31540640,Muir (John) Elementary,Elementary,SCHOOL,3,12_3B,Pacific Gas & Electric Company,67172.34221,-121.79568,37.97684,Bay Area,POINT (-157430.17975380505 -3074.008725522086)
559,7.62E+12,31579349,Jack London Elementary,Elementary,SCHOOL,2,12_3B,Pacific Gas & Electric Company,44955.40262,-121.77608,37.97136,Bay Area,POINT (-155722.48768520448 -3715.4805575171486)
560,7.62E+12,31577889,Black Diamond Middle,Middle,SCHOOL,2,12_3B,Pacific Gas & Electric Company,96022.37289,-121.76724,37.97002,Bay Area,POINT (-154949.85438095735 -3878.9095139671117)
561,7.62E+12,31516460,Grant Elementary,Elementary,SCHOOL,1,12_3B,Pacific Gas & Electric Company,74654.7666,-121.7686,37.9859,Bay Area,POINT (-155036.22088137586 -2111.66841779463)
562,7.62E+12,X,Antioch Charter Academy,Elementary,SCHOOL,,,,29905.86528,-121.82677,37.98834,,POINT (-160132.419316817 -1743.7306434246711)
563,7.62E+12,263003895,Diablo Vista Elementary,Elementary,SCHOOL,6,12_3B,Pacific Gas & Electric Company,45268.76648,-121.77059,37.95816,Bay Area,POINT (-155268.32962156035 -5191.63100489974)
564,7.62E+12,X,Pioneer Elementary,Elementary,SCHOOL,,,,137512.4538,-121.73591,37.95498,,POINT (-152232.2618422936 -5601.352643640712)
565,7.62E+12,X,Marsh Creek Elementary,Elementary,SCHOOL,,,,18004.94717,-121.70743,37.95307,,POINT (-149737.3613429053 -5859.027249766048)
566,7.62E+12,31856156,Adams (J. Douglas) Middle,Middle,SCHOOL,63,12_3B,Pacific Gas & Electric Company,132231.1273,-121.75855,37.91956,Bay Area,POINT (-154291.6286515461 -9501.584458635654)
567,7.62E+12,X,Mary Casey Black Elementary,Elementary,SCHOOL,,,,82588.37973,-121.6885,37.94814,,POINT (-148086.22715183935 -6436.740614704788)
568,7.62E+12,31795879,Brentwood Elementary,Elementary,SCHOOL,45,12_3B,Pacific Gas & Electric Company,75363.08616,-121.70789,37.9287,Bay Area,POINT (-149826.5213453236 -8566.989917289931)
569,7.62E+12,31795090,Edna Hill Middle,Middle,SCHOOL,57,12_3B,Pacific Gas & Electric Company,128114.5091,-121.69072,37.9307,Bay Area,POINT (-148315.5923919764 -8371.705473599024)
570,7.62E+12,321775870,Garin Elementary,Elementary,SCHOOL,44,12_3B,Pacific Gas & Electric Company,79711.3012,-121.68984,37.92804,Bay Area,POINT (-148243.62941233267 -8668.738709030207)
571,7.62E+12,31797869,Ron Nunn Elementary,Elementary,SCHOOL,3,12_3B,Pacific Gas & Electric Company,56651.58104,-121.73036,37.93036,Bay Area,POINT (-151795.2770292092 -8346.719947574195)
572,7.62E+12,31796415,William B. Bristow Middle,Middle,SCHOOL,59,12_3B,Pacific Gas & Electric Company,120273.6326,-121.71568,37.93781,Bay Area,POINT (-150491.90117122064 -7542.0822559027)
573,7.62E+12,31820764,Loma Vista Elementary,Elementary,SCHOOL,1,12_3B,Pacific Gas & Electric Company,122305.3132,-121.73558,37.9405,Bay Area,POINT (-152232.77489322968 -7211.304723415989)
574,7.62E+12,X,R. Paul Krey Elementary,Elementary,SCHOOL,,,,79053.71824,-121.73785,37.91943,,POINT (-152474.90596167205 -9549.541842123494)
575,7.62E+12,X,Vista Oaks Charter,K-12,SCHOOL,,,,137512.4538,-121.30855,38.12895,,POINT (-114469.12458902923 13134.280009279028)
576,7.62E+12,X,Byron Institute for Independent Study,Alternative Schools of Choice,SCHOOL,,,,13248.60062,-121.5986025,37.90102723,,POINT (-140286.43742329857 -11810.121498479508)
